b'\xb5b\x01\x12$\x00\x98O\xa1\x08\x01\x00\x00\x00\x00\x00\x00\x00\x01\x00\x00\x00\x02\x00\x00\x00\x01\x00\x00\x00\x00\x00\x00\x00\x08\x00\x00\x00\x80\xa8\x12\x01\x0f\xa2$GNDTM,W84,,0.0,N,0.0,E,0.0,W84*71'
b'$GNRMC,161251.40,A,4216.42071,N,07148.40570,W,0.021,,010424,,,D,V*0A'
b'$GNVTG,,T,,M,0.021,N,0.039,K,D*31'
b'$GNGNS,161251.40,4216.42071,N,07148.40570,W,DDDD,28,0.54,181.0,-33.4,,0000,V*23'
b'$GNGGA,161251.40,4216.42071,N,07148.40570,W,2,12,0.54,181.0,M,-33.4,M,,0000*79'
b'$GNGSA,A,3,02,07,08,14,46,17,21,22,44,30,13,,0.95,0.54,0.78,1*0D'
b'$GNGSA,A,3,78,82,79,88,81,80,,,,,,,0.95,0.54,0.78,2*0A'
b'$GNGSA,A,3,21,27,26,15,13,,,,,,,,0.95,0.54,0.78,3*05'
b'$GNGSA,A,3,11,12,24,25,26,34,,,,,,,0.95,0.54,0.78,4*07'
b'$GPGSV,3,1,12,01,,,42,02,65,113,49,07,51,197,47,08,35,058,39,1*5B'
b'$GPGSV,3,2,12,13,15,299,28,14,48,305,45,17,31,249,39,21,57,079,48,1*64'
b'$GPGSV,3,3,12,22,28,298,37,30,59,258,45,44,23,236,36,46,15,247,32,1*6E'
b'$GPGSV,2,1,07,01,,,37,07,51,197,36,08,35,058,17,10,05,036,21,6*5C'
b'$GPGSV,2,2,07,14,48,305,35,17,31,249,40,30,59,258,42,6*54'
b'$GPGSV,1,1,02,19,05,242,,27,01,063,,0*6F'
b'$GLGSV,2,1,07,71,03,351,32,78,46,126,43,79,73,348,45,80,20,321,37,1*7A'
b'$GLGSV,2,2,07,81,78,199,47,82,27,210,34,88,42,036,49,1*4E'
b'$GLGSV,2,1,07,71,03,351,17,78,46,126,43,79,73,348,39,80,20,321,29,3*7B'
b'$GLGSV,2,2,07,81,78,199,36,82,27,210,30,88,42,036,37,3*47'
b'$GLGSV,1,1,01,70,00,306,,0*4A'
b'$GAGSV,3,1,09,09,08,317,20,13,54,073,47,15,12,035,29,18,74,056,47,2*7F'
b'$GAGSV,3,2,09,21,64,088,48,26,46,168,43,27,13,109,44,31,07,296,16,2*7D'
b'$GAGSV,3,3,09,33,06,196,31,2*45'
b'$GAGSV,2,1,08,13,54,073,45,15,12,035,26,18,74,056,43,21,64,088,47,7*77'
b'$GAGSV,2,2,08,26,46,168,42,27,13,109,43,31,07,296,16,33,06,196,22,7*7B'
b'$GAGSV,1,1,02,04,14,270,,19,02,217,,0*7C'
b'$GBGSV,2,1,06,11,21,221,39,12,76,206,44,24,75,170,46,25,43,308,45,1*77'
b'$GBGSV,2,2,06,26,25,142,34,34,44,223,41,1*72'
b'$GBGSV,1,1,02,11,21,221,37,12,76,206,47,3*75'
b'$GNGLL,4216.42071,N,07148.40570,W,161251.40,A,D*69'
b'$GNGRS,161251.40,1,0.2,-0.4,-0.3,-0.1,-18.7,1.0,0.0,-0.8,-12.4,0.6,-19.2,,1,1*6F'
b'$GNGRS,161251.40,1,0.0,,,,,,0.0,0.0,,,0.0,,1,5*50'
b'$GNGRS,161251.40,1,,2.5,3.9,-0.6,,-0.5,,,,-1.3,,,1,6*5C'
b'$GNGRS,161251.40,1,2.7,-10.1,-1.7,0.9,-1.5,-2.6,,,,,,,2,1*6D'
b'$GNGRS,161251.40,1,0.8,-12.2,-0.2,1.6,2.2,-4.8,,,,,,,2,3*48'
b'$GNGRS,161251.40,1,-0.5,0.7,1.6,-18.0,0.9,,,,,,,,3,2*4E'
b'$GNGRS,161251.40,1,0.0,0.7,-0.4,-7.9,1.0,,,,,,,,3,7*72'
b'$GNGRS,161251.40,1,0.6,-0.4,0.2,-2.2,-41.2,2.5,,,,,,,4,1*4C'
b'$GNGRS,161251.40,1,-15.6,2.0,0.0,0.0,0.0,0.0,,,,,,,4,3*4E'
b'$GNGST,161251.40,21,0.42,0.31,168,0.17,0.13,0.43*46'
b'$GNZDA,161251.40,01,04,2024,00,00*7D'
b'$GNGBS,161251.40,0.2,0.1,0.4,,,,,,*5C'
b'$GNVLW,,N,,N,0.000,N,0.000,N*44'
b'\xb5b\x01\x03\x10\x00\x98O\xa1\x08\x03\xdf\x02\x08O\x02\x00\x00\xc7\x7f\x05\x00,\x02\xb5b\x01\x12$\x00`P\xa1\x08\x01\x00\x00\x00\xff\xff\xff\xff\x01\x00\x00\x00\x02\x00\x00\x00\x02\x00\x00\x00\x00\x00\x00\x00\x08\x00\x00\x00\x80\xa8\x12\x01\xd5\x8b$GNDTM,W84,,0.0,N,0.0,E,0.0,W84*71'
b'$GNRMC,161251.60,A,4216.42071,N,07148.40570,W,0.032,,010424,,,D,V*0A'
b'$GNVTG,,T,,M,0.032,N,0.059,K,D*35'
b'$GNGNS,161251.60,4216.42071,N,07148.40570,W,DDDD,28,0.54,181.0,-33.4,,0000,V*21'
b'$GNGGA,161251.60,4216.42071,N,07148.40570,W,2,12,0.54,181.0,M,-33.4,M,,0000*7B'
b'$GNGSA,A,3,02,07,08,14,46,17,21,22,44,30,13,,0.95,0.54,0.78,1*0D'
b'$GNGSA,A,3,78,82,79,88,81,80,,,,,,,0.95,0.54,0.78,2*0A'
b'$GNGSA,A,3,21,27,26,15,13,,,,,,,,0.95,0.54,0.78,3*05'
b'$GNGSA,A,3,11,12,24,25,26,34,,,,,,,0.95,0.54,0.78,4*07'
b'$GPGSV,3,1,12,01,,,42,02,65,113,49,07,51,197,47,08,35,058,39,1*5B'
b'$GPGSV,3,2,12,13,15,299,28,14,48,305,45,17,31,249,39,21,57,079,48,1*64'
b'$GPGSV,3,3,12,22,28,298,37,30,59,258,45,44,23,236,36,46,15,247,31,1*6D'
b'$GPGSV,2,1,07,01,,,37,07,51,197,36,08,35,058,17,10,05,036,21,6*5C'
b'$GPGSV,2,2,07,14,48,305,35,17,31,249,39,30,59,258,42,6*5A'
b'$GPGSV,1,1,02,19,05,242,,27,01,063,,0*6F'
b'$GLGSV,2,1,07,71,03,351,32,78,46,126,43,79,73,348,45,80,20,321,37,1*7A'
b'$GLGSV,2,2,07,81,78,199,47,82,27,210,34,88,42,036,49,1*4E'
b'$GLGSV,2,1,07,71,03,351,17,78,46,126,43,79,73,348,39,80,20,321,30,3*73'
b'$GLGSV,2,2,07,81,78,199,35,82,27,210,30,88,42,036,37,3*44'
b'$GLGSV,1,1,01,70,00,306,,0*4A'
b'$GAGSV,3,1,09,09,08,317,20,13,54,073,47,15,12,035,29,18,74,056,47,2*7F'
b'$GAGSV,3,2,09,21,64,088,48,26,46,168,43,27,13,109,44,31,07,296,17,2*7C'
b'$GAGSV,3,3,09,33,06,196,31,2*45'
b'$GAGSV,2,1,08,13,54,073,45,15,12,035,26,18,74,056,43,21,64,088,47,7*77'
b'$GAGSV,2,2,08,26,46,168,42,27,13,109,43,31,07,296,16,33,06,196,22,7*7B'
b'$GAGSV,1,1,02,04,14,270,,19,02,217,,0*7C'
b'$GBGSV,2,1,06,11,21,221,39,12,76,206,44,24,75,170,46,25,43,308,45,1*77'
b'$GBGSV,2,2,06,26,25,142,34,34,44,223,41,1*72'
b'$GBGSV,1,1,02,11,21,221,37,12,76,206,47,3*75'
b'$GNGLL,4216.42071,N,07148.40570,W,161251.60,A,D*6B'
b'$GNGRS,161251.60,1,0.2,-0.3,-0.3,-0.1,-18.7,1.0,0.0,-0.8,-12.4,0.6,-19.1,,1,1*69'
b'$GNGRS,161251.60,1,0.0,,,,,,0.0,0.0,,,0.0,,1,5*52'
b'$GNGRS,161251.60,1,,2.5,4.2,-0.6,,-0.5,,,,-1.3,,,1,6*52'
b'$GNGRS,161251.60,1,2.7,-10.1,-1.7,0.9,-1.5,-2.6,,,,,,,2,1*6F'
b'$GNGRS,161251.60,1,0.8,-12.3,-0.2,1.6,2.2,-4.8,,,,,,,2,3*4B'
b'$GNGRS,161251.60,1,-0.4,0.6,1.6,-18.0,0.9,,,,,,,,3,2*4C'
b'$GNGRS,161251.60,1,0.0,0.6,-0.5,-7.8,1.0,,,,,,,,3,7*71'
b'$GNGRS,161251.60,1,0.5,-0.4,0.2,-2.2,-41.1,2.5,,,,,,,4,1*4E'
b'$GNGRS,161251.60,1,-15.5,2.0,0.0,0.0,0.0,0.0,,,,,,,4,3*4F'
b'$GNGST,161251.60,21,0.42,0.31,168,0.17,0.13,0.43*44'
b'$GNZDA,161251.60,01,04,2024,00,00*7F'
b'$GNGBS,161251.60,0.2,0.1,0.4,,,,,,*5E'
b'$GNVLW,,N,,N,0.000,N,0.000,N*44'
b'\xb5b\x01\x03\x10\x00`P\xa1\x08\x03\xdf\x02\x08O\x02\x00\x00\x8f\x80\x05\x00\xbe\xb4\xb5b\x01\x12$\x00(Q\xa1\x08\x01\x00\x00\x00\x00\x00\x00\x00\x01\x00\x00\x00\x02\x00\x00\x00\x01\x00\x00\x00\x00\x00\x00\x00\x08\x00\x00\x00\x80\xa8\x12\x01\xa1($GNDTM,W84,,0.0,N,0.0,E,0.0,W84*71'
b'$GNRMC,161251.80,A,4216.42072,N,07148.40571,W,0.022,,010424,,,D,V*07'
b'$GNVTG,,T,,M,0.022,N,0.041,K,D*3D'
b'$GNGNS,161251.80,4216.42072,N,07148.40571,W,DDDD,28,0.54,181.0,-33.4,,0000,V*2D'
b'$GNGGA,161251.80,4216.42072,N,07148.40571,W,2,12,0.54,181.0,M,-33.4,M,,0000*77'
b'$GNGSA,A,3,02,07,08,14,46,17,21,22,44,30,13,,0.95,0.54,0.78,1*0D'
b'$GNGSA,A,3,78,82,79,88,81,80,,,,,,,0.95,0.54,0.78,2*0A'
b'$GNGSA,A,3,21,27,26,15,13,,,,,,,,0.95,0.54,0.78,3*05'
b'$GNGSA,A,3,11,12,24,25,26,34,,,,,,,0.95,0.54,0.78,4*07'
b'$GPGSV,3,1,12,01,,,42,02,65,113,49,07,51,197,47,08,35,058,39,1*5B'
b'$GPGSV,3,2,12,13,15,299,28,14,48,305,45,17,31,249,39,21,57,079,48,1*64'
b'$GPGSV,3,3,12,22,28,298,37,30,59,258,45,44,23,236,36,46,15,247,31,1*6D'
b'$GPGSV,2,1,07,01,,,37,07,51,197,36,08,35,058,17,10,05,036,20,6*5D'
b'$GPGSV,2,2,07,14,48,305,35,17,31,249,39,30,59,258,41,6*59'
b'$GPGSV,1,1,02,19,05,242,,27,01,063,,0*6F'
b'$GLGSV,2,1,07,71,03,351,31,78,46,126,43,79,73,348,45,80,20,321,37,1*79'
b'$GLGSV,2,2,07,81,78,199,47,82,27,210,34,88,42,036,49,1*4E'
b'$GLGSV,2,1,07,71,03,351,17,78,46,126,43,79,73,348,39,80,20,321,30,3*73'
b'$GLGSV,2,2,07,81,78,199,36,82,27,210,30,88,42,036,37,3*47'
b'$GLGSV,1,1,01,70,00,306,,0*4A'
b'$GAGSV,3,1,09,09,08,317,20,13,54,073,47,15,12,035,29,18,74,056,47,2*7F'
b'$GAGSV,3,2,09,21,64,088,48,26,46,168,43,27,13,109,44,31,07,296,17,2*7C'
b'$GAGSV,3,3,09,33,06,196,31,2*45'
b'$GAGSV,2,1,08,13,54,073,45,15,12,035,26,18,74,056,43,21,64,088,47,7*77'
b'$GAGSV,2,2,08,26,46,168,42,27,13,109,43,31,07,296,16,33,06,196,22,7*7B'
b'$GAGSV,1,1,02,04,14,270,,19,02,217,,0*7C'
b'$GBGSV,2,1,06,11,21,221,39,12,76,206,44,24,75,170,46,25,43,308,45,1*77'
b'$GBGSV,2,2,06,26,25,142,34,34,44,223,41,1*72'
b'$GBGSV,1,1,02,11,21,221,37,12,76,206,47,3*75'
b'$GNGLL,4216.42072,N,07148.40571,W,161251.80,A,D*67'
b'$GNGRS,161251.80,1,0.2,-0.3,-0.3,-0.1,-18.7,1.0,0.0,-0.8,-12.4,0.6,-20.0,,1,1*6C'
b'$GNGRS,161251.80,1,0.0,,,,,,0.0,0.0,,,,,1,5*72'
b'$GNGRS,161251.80,1,,2.5,4.5,-0.6,,-0.5,,,,-1.3,,,1,6*5B'
b'$GNGRS,161251.80,1,2.7,-10.0,-1.8,1.0,-1.6,-2.6,,,,,,,2,1*64'
b'$GNGRS,161251.80,1,0.8,-12.2,-0.3,1.6,2.2,-4.8,,,,,,,2,3*45'
b'$GNGRS,161251.80,1,-0.5,0.7,1.5,-18.0,0.8,,,,,,,,3,2*40'
b'$GNGRS,161251.80,1,-0.2,0.6,-0.4,-7.9,1.0,,,,,,,,3,7*50'
b'$GNGRS,161251.80,1,0.5,-0.4,0.3,-2.3,-41.1,2.6,,,,,,,4,1*43'
b'$GNGRS,161251.80,1,-15.5,2.1,0.0,0.0,0.0,0.0,,,,,,,4,3*40'
b'$GNGST,161251.80,21,0.42,0.31,167,0.17,0.13,0.43*45'
b'$GNZDA,161251.80,01,04,2024,00,00*71'
b'$GNGBS,161251.80,0.2,0.1,0.4,,,,,,*50'
b'$GNVLW,,N,,N,0.000,N,0.000,N*44'
b'\xb5b\x01\x03\x10\x00(Q\xa1\x08\x03\xdf\x02\x08O\x02\x00\x00W\x81\x05\x00Pf\xb5b\x01\x12$\x00\xf0Q\xa1\x08\x01\x00\x00\x00\x00\x00\x00\x00\x01\x00\x00\x00\x02\x00\x00\x00\x01\x00\x00\x00\x00\x00\x00\x00\x08\x00\x00\x00\x80\xa8\x12\x01iH$GNDTM,W84,,0.0,N,0.0,E,0.0,W84*71'
b'$GNRMC,161252.00,A,4216.42072,N,07148.40571,W,0.026,,010424,,,D,V*08'
b'$GNVTG,,T,,M,0.026,N,0.049,K,D*31'
b'$GNGNS,161252.00,4216.42072,N,07148.40571,W,DDDD,28,0.54,181.0,-33.4,,0000,V*26'
b'$GNGGA,161252.00,4216.42072,N,07148.40571,W,2,12,0.54,181.0,M,-33.4,M,,0000*7C'
b'$GNGSA,A,3,02,07,08,14,46,17,21,22,44,30,13,,0.95,0.54,0.78,1*0D'
b'$GNGSA,A,3,78,82,79,88,81,80,,,,,,,0.95,0.54,0.78,2*0A'
b'$GNGSA,A,3,21,27,26,15,13,,,,,,,,0.95,0.54,0.78,3*05'
b'$GNGSA,A,3,11,12,24,25,26,34,,,,,,,0.95,0.54,0.78,4*07'
b'$GPGSV,3,1,12,01,,,42,02,65,113,49,07,51,197,46,08,35,058,39,1*5A'
b'$GPGSV,3,2,12,13,15,299,28,14,48,305,45,17,31,249,39,21,57,079,48,1*64'
b'$GPGSV,3,3,12,22,28,298,37,30,59,258,45,44,23,236,36,46,15,247,31,1*6D'
b'$GPGSV,2,1,07,01,,,37,07,51,197,36,08,35,058,17,10,05,036,21,6*5C'
b'$GPGSV,2,2,07,14,48,305,35,17,31,249,39,30,59,258,41,6*59'
b'$GPGSV,1,1,02,19,05,242,,27,01,063,,0*6F'
b'$GLGSV,2,1,07,71,03,351,31,78,46,126,43,79,73,348,45,80,20,321,37,1*79'
b'$GLGSV,2,2,07,81,78,199,47,82,27,210,34,88,42,036,49,1*4E'
b'$GLGSV,2,1,07,71,03,351,18,78,46,126,43,79,73,348,38,80,20,321,30,3*7D'
b'$GLGSV,2,2,07,81,78,199,36,82,27,210,30,88,42,036,37,3*47'
b'$GLGSV,1,1,01,70,00,306,,0*4A'
b'$GAGSV,3,1,09,09,08,317,21,13,54,073,47,15,12,035,29,18,74,056,47,2*7E'
b'$GAGSV,3,2,09,21,64,088,48,26,46,168,43,27,13,109,44,31,07,296,17,2*7C'
b'$GAGSV,3,3,09,33,06,196,31,2*45'
b'$GAGSV,2,1,08,13,54,073,45,15,12,035,26,18,74,056,43,21,64,088,47,7*77'
b'$GAGSV,2,2,08,26,46,168,42,27,13,109,43,31,07,296,16,33,06,196,22,7*7B'
b'$GAGSV,1,1,02,04,14,270,,19,02,217,,0*7C'
b'$GBGSV,2,1,06,11,21,221,39,12,76,206,44,24,75,170,46,25,43,308,45,1*77'
b'$GBGSV,2,2,06,26,25,142,34,34,44,223,41,1*72'
b'$GBGSV,1,1,02,11,21,221,37,12,76,206,47,3*75'
b'$GNGLL,4216.42072,N,07148.40571,W,161252.00,A,D*6C'
b'$GNGRS,161252.00,1,0.2,-0.3,-0.3,-0.1,-18.7,1.0,0.1,-0.9,-12.5,0.6,-20.3,,1,1*65'
b'$GNGRS,161252.00,1,0.0,,,,,,0.0,0.0,,,,,1,5*79'
b'$GNGRS,161252.00,1,,2.4,4.4,-0.6,,-0.5,,,,-1.4,,,1,6*57'
b'$GNGRS,161252.00,1,2.7,-10.1,-1.7,1.0,-1.6,-2.6,,,,,,,2,1*61'
b'$GNGRS,161252.00,1,0.8,-12.3,-0.3,1.6,2.2,-4.8,,,,,,,2,3*4F'
b'$GNGRS,161252.00,1,-0.4,0.7,1.6,-18.0,0.9,,,,,,,,3,2*48'
b'$GNGRS,161252.00,1,-0.1,0.7,-0.4,-7.8,1.1,,,,,,,,3,7*59'
b'$GNGRS,161252.00,1,0.4,-0.4,0.3,-2.2,-41.1,2.6,,,,,,,4,1*48'
b'$GNGRS,161252.00,1,-15.5,2.1,0.0,0.0,0.0,0.0,,,,,,,4,3*4B'
b'$GNGST,161252.00,21,0.42,0.31,167,0.17,0.13,0.43*4E'
b'$GNZDA,161252.00,01,04,2024,00,00*7A'
b'$GNGBS,161252.00,0.2,0.1,0.4,,,,,,*5B'
b'$GNVLW,,N,,N,0.000,N,0.000,N*44'
b'\xb5b\x01\x03\x10\x00\xf0Q\xa1\x08\x03\xdf\x02\x08O\x02\x00\x00\x1f\x82\x05\x00\xe1\t\xb5b\x01\x12$\x00\xb8R\xa1\x08\x01\x00\x00\x00\x00\x00\x00\x00\x01\x00\x00\x00\x01\x00\x00\x00\x01\x00\x00\x00\x00\x00\x00\x00\x08\x00\x00\x00\x80\xa8\x12\x011w$GNDTM,W84,,0.0,N,0.0,E,0.0,W84*71'
b'$GNRMC,161252.20,A,4216.42072,N,07148.40571,W,0.012,,010424,,,D,V*0D'
b'$GNVTG,,T,,M,0.012,N,0.021,K,D*38'
b'$GNGNS,161252.20,4216.42072,N,07148.40571,W,DDDD,28,0.54,181.0,-33.4,,0000,V*24'
b'$GNGGA,161252.20,4216.42072,N,07148.40571,W,2,12,0.54,181.0,M,-33.4,M,,0000*7E'
b'$GNGSA,A,3,02,07,08,14,46,17,21,22,44,30,13,,0.95,0.54,0.78,1*0D'
b'$GNGSA,A,3,78,82,79,88,81,80,,,,,,,0.95,0.54,0.78,2*0A'
b'$GNGSA,A,3,21,27,26,15,13,,,,,,,,0.95,0.54,0.78,3*05'
b'$GNGSA,A,3,11,12,24,25,26,34,,,,,,,0.95,0.54,0.78,4*07'
b'$GPGSV,3,1,12,01,,,42,02,65,113,49,07,51,197,46,08,35,058,39,1*5A'
b'$GPGSV,3,2,12,13,15,299,29,14,48,305,45,17,31,249,39,21,57,079,48,1*65'
b'$GPGSV,3,3,12,22,28,298,37,30,59,258,44,44,23,236,36,46,15,247,31,1*6C'
b'$GPGSV,2,1,07,01,,,37,07,51,197,35,08,35,058,17,10,05,036,20,6*5E'
b'$GPGSV,2,2,07,14,48,305,35,17,31,249,39,30,59,258,41,6*59'
b'$GPGSV,1,1,02,19,05,242,,27,01,063,,0*6F'
b'$GLGSV,2,1,07,71,03,351,31,78,46,126,42,79,73,348,45,80,20,321,37,1*78'
b'$GLGSV,2,2,07,81,78,199,47,82,27,210,34,88,42,036,49,1*4E'
b'$GLGSV,2,1,07,71,03,351,18,78,46,126,43,79,73,348,38,80,20,321,30,3*7D'
b'$GLGSV,2,2,07,81,78,199,36,82,27,210,30,88,42,036,37,3*47'
b'$GLGSV,1,1,01,70,00,306,,0*4A'
b'$GAGSV,3,1,09,09,08,317,21,13,54,073,47,15,12,035,28,18,74,056,47,2*7F'
b'$GAGSV,3,2,09,21,64,088,48,26,46,168,43,27,13,109,44,31,07,296,17,2*7C'
b'$GAGSV,3,3,09,33,06,196,31,2*45'
b'$GAGSV,2,1,08,13,54,073,45,15,12,035,26,18,74,056,43,21,64,088,47,7*77'
b'$GAGSV,2,2,08,26,46,168,42,27,13,109,43,31,07,296,16,33,06,196,22,7*7B'
b'$GAGSV,1,1,02,04,14,270,,19,02,217,,0*7C'
b'$GBGSV,2,1,06,11,21,221,39,12,76,206,44,24,75,170,46,25,43,308,45,1*77'
b'$GBGSV,2,2,06,26,25,142,35,34,44,223,41,1*73'
b'$GBGSV,1,1,02,11,21,221,37,12,76,206,47,3*75'
b'$GNGLL,4216.42072,N,07148.40571,W,161252.20,A,D*6E'
b'$GNGRS,161252.20,1,0.2,-0.3,-0.3,-0.1,-18.8,1.0,0.1,-0.9,-12.5,0.6,-20.4,,1,1*6F'
b'$GNGRS,161252.20,1,0.0,,,,,,0.0,0.0,,,0.0,,1,5*55'
b'$GNGRS,161252.20,1,,2.4,4.3,-0.6,,-0.5,,,,-1.4,,,1,6*52'
b'$GNGRS,161252.20,1,2.7,-10.1,-1.8,1.0,-1.6,-2.6,,,,,,,2,1*6C'
b'$GNGRS,161252.20,1,0.8,-12.4,-0.3,1.6,2.2,-4.9,,,,,,,2,3*4B'
b'$GNGRS,161252.20,1,-0.5,0.7,1.7,-18.0,0.8,,,,,,,,3,2*4B'
b'$GNGRS,161252.20,1,-0.1,0.7,-0.4,-7.7,1.0,,,,,,,,3,7*55'
b'$GNGRS,161252.20,1,0.5,-0.5,0.2,-2.2,-41.1,2.7,,,,,,,4,1*4A'
b'$GNGRS,161252.20,1,-15.6,2.1,0.0,0.0,0.0,0.0,,,,,,,4,3*4A'
b'$GNGST,161252.20,21,0.42,0.31,167,0.17,0.13,0.43*4C'
b'$GNZDA,161252.20,01,04,2024,00,00*78'
b'$GNGBS,161252.20,0.2,0.1,0.4,,,,,,*59'
b'$GNVLW,,N,,N,0.000,N,0.000,N*44'
b'\xb5b\x01\x03\x10\x00\xb8R\xa1\x08\x03\xdf\x02\x08O\x02\x00\x00\xe7\x82\x05\x00r\xb8\xb5b\x01\x12$\x00\x80S\xa1\x08\x01\x00\x00\x00\xff\xff\xff\xff\x01\x00\x00\x00\x02\x00\x00\x00\x02\x00\x00\x00\x00\x00\x00\x00\x08\x00\x00\x00\x80\xa8\x12\x01\xf8t$GNDTM,W84,,0.0,N,0.0,E,0.0,W84*71'
b'$GNRMC,161252.40,A,4216.42072,N,07148.40571,W,0.038,,010424,,,D,V*03'
b'$GNVTG,,T,,M,0.038,N,0.070,K,D*34'
b'$GNGNS,161252.40,4216.42072,N,07148.40571,W,DDDD,28,0.54,181.0,-33.4,,0000,V*22'
b'$GNGGA,161252.40,4216.42072,N,07148.40571,W,2,12,0.54,181.0,M,-33.4,M,,0000*78'
b'$GNGSA,A,3,02,07,08,14,46,17,21,22,44,30,13,,0.95,0.54,0.78,1*0D'
b'$GNGSA,A,3,78,82,79,88,81,80,,,,,,,0.95,0.54,0.78,2*0A'
b'$GNGSA,A,3,21,27,26,15,13,,,,,,,,0.95,0.54,0.78,3*05'
b'$GNGSA,A,3,11,12,24,25,26,34,,,,,,,0.95,0.54,0.78,4*07'
b'$GPGSV,4,1,13,01,,,42,02,65,113,49,07,51,197,46,08,35,058,39,1*5C'
b'$GPGSV,4,2,13,10,05,036,28,13,15,299,29,14,48,305,45,17,31,249,39,1*6B'
b'$GPGSV,4,3,13,21,57,079,48,22,28,298,37,30,59,258,44,44,23,236,35,1*6F'
b'$GPGSV,4,4,13,46,15,247,32,1*50'
b'$GPGSV,2,1,07,01,,,37,07,51,197,35,08,35,058,17,10,05,036,20,6*5E'
b'$GPGSV,2,2,07,14,48,305,35,17,31,249,39,30,59,258,41,6*59'
b'$GPGSV,1,1,02,19,05,242,,27,01,063,,0*6F'
b'$GLGSV,2,1,07,71,03,351,31,78,46,126,42,79,73,348,45,80,20,321,37,1*78'
b'$GLGSV,2,2,07,81,78,199,47,82,27,210,34,88,42,036,49,1*4E'
b'$GLGSV,2,1,07,71,03,351,18,78,46,126,43,79,73,348,39,80,20,321,30,3*7C'
b'$GLGSV,2,2,07,81,78,199,36,82,27,210,30,88,42,036,37,3*47'
b'$GLGSV,1,1,01,70,00,306,,0*4A'
b'$GAGSV,3,1,09,09,08,317,21,13,54,073,47,15,12,035,29,18,74,056,47,2*7E'
b'$GAGSV,3,2,09,21,64,088,48,26,46,168,43,27,13,109,44,31,07,296,16,2*7D'
b'$GAGSV,3,3,09,33,06,196,31,2*45'
b'$GAGSV,2,1,08,13,54,073,45,15,12,035,26,18,74,056,43,21,64,088,47,7*77'
b'$GAGSV,2,2,08,26,46,168,42,27,13,109,43,31,07,296,16,33,06,196,22,7*7B'
b'$GAGSV,1,1,02,04,14,270,,19,02,217,,0*7C'
b'$GBGSV,2,1,06,11,21,221,39,12,76,206,44,24,75,170,46,25,43,308,45,1*77'
b'$GBGSV,2,2,06,26,25,142,35,34,44,223,41,1*73'
b'$GBGSV,1,1,02,11,21,221,36,12,76,206,47,3*74'
b'$GNGLL,4216.42072,N,07148.40571,W,161252.40,A,D*68'
b'$GNGRS,161252.40,1,0.2,-0.3,-0.3,-0.1,-18.5,1.0,0.1,-0.9,-12.2,0.4,-20.4,,1,1*61'
b'$GNGRS,161252.40,1,0.0,,,,,,0.0,0.0,,,0.0,,1,5*53'
b'$GNGRS,161252.40,1,,2.4,3.8,-0.5,,-0.4,,,,-1.4,,,1,6*5A'
b'$GNGRS,161252.40,1,2.6,-10.1,-1.8,1.0,-1.5,-2.6,,,,,,,2,1*68'
b'$GNGRS,161252.40,1,0.7,-12.4,-0.4,1.5,2.3,-4.8,,,,,,,2,3*46'
b'$GNGRS,161252.40,1,-0.4,0.6,1.6,-18.0,0.8,,,,,,,,3,2*4C'
b'$GNGRS,161252.40,1,-0.2,0.8,-0.3,-7.7,1.0,,,,,,,,3,7*58'
b'$GNGRS,161252.40,1,0.5,-0.5,0.2,-2.2,-41.0,2.7,,,,,,,4,1*4D'
b'$GNGRS,161252.40,1,-15.6,2.1,0.0,0.0,0.0,0.0,,,,,,,4,3*4C'
b'$GNGST,161252.40,20,0.42,0.31,168,0.17,0.13,0.43*44'
b'$GNZDA,161252.40,01,04,2024,00,00*7E'
b'$GNGBS,161252.40,0.2,0.1,0.4,,,,,,*5F'
b'$GNVLW,,N,,N,0.000,N,0.000,N*44'
b'\xb5b\x01\x03\x10\x00\x80S\xa1\x08\x03\xdf\x02\x08O\x02\x00\x00\xaf\x83\x05\x00\x04j\xb5b\x01\x12$\x00HT\xa1\x08\x01\x00\x00\x00\xff\xff\xff\xff\x01\x00\x00\x00\x01\x00\x00\x00\x01\x00\x00\x00\x00\x00\x00\x00\x08\x00\x00\x00\x80\xa8\x12\x01\xbf\x93$GNDTM,W84,,0.0,N,0.0,E,0.0,W84*71'
b'$GNRMC,161252.60,A,4216.42072,N,07148.40572,W,0.019,,010424,,,D,V*01'
b'$GNVTG,,T,,M,0.019,N,0.035,K,D*36'
b'$GNGNS,161252.60,4216.42072,N,07148.40572,W,DDDD,28,0.54,181.0,-33.4,,0000,V*23'
b'$GNGGA,161252.60,4216.42072,N,07148.40572,W,2,12,0.54,181.0,M,-33.4,M,,0000*79'
b'$GNGSA,A,3,02,07,08,14,46,17,21,22,44,30,13,,0.95,0.54,0.78,1*0D'
b'$GNGSA,A,3,78,82,79,88,81,80,,,,,,,0.95,0.54,0.78,2*0A'
b'$GNGSA,A,3,21,27,26,15,13,,,,,,,,0.95,0.54,0.78,3*05'
b'$GNGSA,A,3,11,12,24,25,26,34,,,,,,,0.95,0.54,0.78,4*07'
b'$GPGSV,4,1,13,01,,,42,02,65,113,49,07,51,197,46,08,35,058,39,1*5C'
b'$GPGSV,4,2,13,10,05,036,28,13,15,299,29,14,48,305,45,17,31,249,40,1*65'
b'$GPGSV,4,3,13,21,57,079,48,22,28,298,37,30,59,258,44,44,23,236,35,1*6F'
b'$GPGSV,4,4,13,46,15,247,32,1*50'
b'$GPGSV,2,1,07,01,,,37,07,51,197,35,08,35,058,17,10,05,036,20,6*5E'
b'$GPGSV,2,2,07,14,48,305,35,17,31,249,39,30,59,258,41,6*59'
b'$GPGSV,1,1,02,19,05,242,,27,01,063,,0*6F'
b'$GLGSV,2,1,07,71,03,351,31,78,46,126,42,79,73,348,45,80,20,321,37,1*78'
b'$GLGSV,2,2,07,81,78,199,47,82,27,210,34,88,42,036,49,1*4E'
b'$GLGSV,2,1,07,71,03,351,19,78,46,126,43,79,73,348,38,80,20,321,30,3*7C'
b'$GLGSV,2,2,07,81,78,199,36,82,27,210,30,88,42,036,37,3*47'
b'$GLGSV,1,1,01,70,00,306,,0*4A'
b'$GAGSV,3,1,09,09,08,317,21,13,54,073,47,15,12,035,29,18,74,056,47,2*7E'
b'$GAGSV,3,2,09,21,64,088,48,26,46,168,43,27,13,109,44,31,07,296,16,2*7D'
b'$GAGSV,3,3,09,33,06,196,31,2*45'
b'$GAGSV,2,1,08,13,54,073,45,15,12,035,26,18,74,056,43,21,64,088,47,7*77'
b'$GAGSV,2,2,08,26,46,168,42,27,13,109,43,31,07,296,17,33,06,196,22,7*7A'
b'$GAGSV,1,1,02,04,14,270,,19,02,217,,0*7C'
b'$GBGSV,2,1,06,11,21,221,40,12,76,206,44,24,75,170,46,25,43,308,45,1*79'
b'$GBGSV,2,2,06,26,25,142,35,34,44,223,41,1*73'
b'$GBGSV,1,1,02,11,21,221,36,12,76,206,47,3*74'
b'$GNGLL,4216.42072,N,07148.40572,W,161252.60,A,D*69'
b'$GNGRS,161252.60,1,0.2,-0.2,-0.3,-0.2,-18.6,1.0,0.1,-0.9,-12.2,0.4,-21.0,,1,1*67'
b'$GNGRS,161252.60,1,0.0,,,,,,0.0,0.0,,,0.0,,1,5*51'
b'$GNGRS,161252.60,1,,2.4,3.4,-0.6,,-0.5,,,,-1.4,,,1,6*56'
b'$GNGRS,161252.60,1,2.6,-10.1,-1.8,1.0,-1.5,-2.6,,,,,,,2,1*6A'
b'$GNGRS,161252.60,1,0.8,-12.3,-0.4,1.5,2.2,-4.8,,,,,,,2,3*4D'
b'$GNGRS,161252.60,1,-0.5,0.6,1.6,-18.0,0.8,,,,,,,,3,2*4F'
b'$GNGRS,161252.60,1,-0.1,0.8,-0.4,-7.6,1.1,,,,,,,,3,7*5E'
b'$GNGRS,161252.60,1,0.5,-0.5,0.2,-2.2,-41.0,2.7,,,,,,,4,1*4F'
b'$GNGRS,161252.60,1,-15.6,2.0,0.0,0.0,0.0,0.0,,,,,,,4,3*4F'
b'$GNGST,161252.60,20,0.42,0.31,167,0.17,0.13,0.43*49'
b'$GNZDA,161252.60,01,04,2024,00,00*7C'
b'$GNGBS,161252.60,0.2,0.1,0.4,,,,,,*5D'
b'$GNVLW,,N,,N,0.000,N,0.000,N*44'
b'\xb5b\x01\x03\x10\x00HT\xa1\x08\x03\xdf\x02\x08O\x02\x00\x00w\x84\x05\x00\x96\x1c\xb5b\x01\x12$\x00\x10U\xa1\x08\x02\x00\x00\x00\xff\xff\xff\xff\x01\x00\x00\x00\x02\x00\x00\x00\x02\x00\x00\x00\x00\x00\x00\x00\x07\x00\x00\x00\xe2\xd0\x03\x01\x05\xf4$GNDTM,W84,,0.0,N,0.0,E,0.0,W84*71'
b'$GNRMC,161252.80,A,4216.42072,N,07148.40572,W,0.040,,010424,,,D,V*03'
b'$GNVTG,,T,,M,0.040,N,0.075,K,D*3E'
b'$GNGNS,161252.80,4216.42072,N,07148.40572,W,DDDD,28,0.54,181.0,-33.4,,0000,V*2D'
b'$GNGGA,161252.80,4216.42072,N,07148.40572,W,2,12,0.54,181.0,M,-33.4,M,,0000*77'
b'$GNGSA,A,3,02,07,08,14,46,17,21,22,44,30,13,,0.95,0.54,0.78,1*0D'
b'$GNGSA,A,3,78,82,79,88,81,80,,,,,,,0.95,0.54,0.78,2*0A'
b'$GNGSA,A,3,21,27,26,15,13,,,,,,,,0.95,0.54,0.78,3*05'
b'$GNGSA,A,3,11,12,24,25,26,34,,,,,,,0.95,0.54,0.78,4*07'
b'$GPGSV,3,1,12,01,,,41,02,65,113,49,07,51,197,46,08,35,058,39,1*59'
b'$GPGSV,3,2,12,13,15,299,29,14,48,305,45,17,31,249,40,21,57,079,48,1*6B'
b'$GPGSV,3,3,12,22,28,298,37,30,59,258,44,44,23,236,35,46,15,247,32,1*6C'
b'$GPGSV,2,1,07,01,,,37,07,51,197,36,08,35,058,18,10,05,036,20,6*52'
b'$GPGSV,2,2,07,14,48,305,35,17,31,249,39,30,59,258,41,6*59'
b'$GPGSV,1,1,02,19,05,242,,27,01,063,,0*6F'
b'$GLGSV,2,1,07,71,03,351,31,78,46,126,42,79,73,348,45,80,20,321,37,1*78'
b'$GLGSV,2,2,07,81,78,199,47,82,27,210,34,88,42,036,49,1*4E'
b'$GLGSV,2,1,07,71,03,351,19,78,46,126,43,79,73,348,38,80,20,321,30,3*7C'
b'$GLGSV,2,2,07,81,78,199,36,82,27,210,30,88,42,036,37,3*47'
b'$GLGSV,1,1,01,70,00,306,,0*4A'
b'$GAGSV,3,1,09,09,08,317,21,13,54,073,47,15,12,035,29,18,74,056,47,2*7E'
b'$GAGSV,3,2,09,21,64,088,48,26,46,168,42,27,13,109,44,31,07,296,16,2*7C'
b'$GAGSV,3,3,09,33,06,196,31,2*45'
b'$GAGSV,2,1,08,13,54,073,45,15,12,035,26,18,74,056,43,21,64,088,47,7*77'
b'$GAGSV,2,2,08,26,46,168,42,27,13,109,43,31,07,296,17,33,06,196,22,7*7A'
b'$GAGSV,1,1,02,04,14,270,,19,02,217,,0*7C'
b'$GBGSV,2,1,06,11,21,221,40,12,76,206,44,24,75,170,46,25,43,308,45,1*79'
b'$GBGSV,2,2,06,26,25,142,35,34,44,223,41,1*73'
b'$GBGSV,1,1,02,11,21,221,36,12,76,206,47,3*74'
b'$GNGLL,4216.42072,N,07148.40572,W,161252.80,A,D*67'
b'$GNGRS,161252.80,1,0.2,-0.2,-0.3,-0.2,-18.6,0.9,0.0,-1.0,-12.2,0.4,-21.7,,1,1*6F'
b'$GNGRS,161252.80,1,0.0,,,,,,0.0,0.0,,,0.0,,1,5*5F'
b'$GNGRS,161252.80,1,,2.3,3.1,-0.6,,-0.5,,,,-1.5,,,1,6*5B'
b'$GNGRS,161252.80,1,2.6,-10.2,-1.8,1.0,-1.5,-2.7,,,,,,,2,1*66'
b'$GNGRS,161252.80,1,0.7,-12.4,-0.5,1.5,2.2,-4.9,,,,,,,2,3*4B'
b'$GNGRS,161252.80,1,-0.5,0.5,1.5,-18.0,0.9,,,,,,,,3,2*40'
b'$GNGRS,161252.80,1,-0.1,0.7,-0.5,-7.5,1.1,,,,,,,,3,7*5D'
b'$GNGRS,161252.80,1,0.4,-0.5,0.2,-2.3,-41.0,2.6,,,,,,,4,1*40'
b'$GNGRS,161252.80,1,-15.7,2.0,,,,,,,,,,,4,3*40'
b'$GNGST,161252.80,20,0.41,0.31,167,0.17,0.13,0.43*44'
b'$GNZDA,161252.80,01,04,2024,00,00*72'
b'$GNGBS,161252.80,0.2,0.1,0.4,,,,,,*53'
b'$GNVLW,,N,,N,0.000,N,0.000,N*44'
b'\xb5b\x01\x03\x10\x00\x10U\xa1\x08\x03\xdf\x02\x08O\x02\x00\x00?\x85\x05\x00(\xce\xb5b\x01\x12$\x00\xd8U\xa1\x08\x01\x00\x00\x00\x00\x00\x00\x00\x01\x00\x00\x00\x01\x00\x00\x00\x01\x00\x00\x00\x00\x00\x00\x00\x08\x00\x00\x00\x80\xa8\x12\x01T`$GNDTM,W84,,0.0,N,0.0,E,0.0,W84*71'
b'$GNRMC,161253.00,A,4216.42072,N,07148.40572,W,0.014,,010424,,,D,V*0B'
b'$GNVTG,,T,,M,0.014,N,0.025,K,D*3A'
b'$GNGNS,161253.00,4216.42072,N,07148.40572,W,DDDD,28,0.56,181.0,-33.4,,0000,V*26'
b'$GNGGA,161253.00,4216.42072,N,07148.40572,W,2,12,0.56,181.0,M,-33.4,M,,0000*7C'
b'$GNGSA,A,3,02,07,08,14,46,17,21,22,44,30,13,,0.98,0.56,0.81,1*04'
b'$GNGSA,A,3,78,82,79,88,81,80,,,,,,,0.98,0.56,0.81,2*03'
b'$GNGSA,A,3,21,27,26,15,13,,,,,,,,0.98,0.56,0.81,3*0C'
b'$GNGSA,A,3,11,12,24,25,26,34,,,,,,,0.98,0.56,0.81,4*0E'
b'$GPGSV,3,1,12,01,,,41,02,65,113,49,07,51,197,46,08,35,058,39,1*59'
b'$GPGSV,3,2,12,13,15,299,29,14,48,305,45,17,31,249,40,21,57,079,48,1*6B'
b'$GPGSV,3,3,12,22,28,298,37,30,59,258,44,44,23,236,35,46,15,247,32,1*6C'
b'$GPGSV,2,1,07,01,,,37,07,51,197,35,08,35,058,18,10,05,036,20,6*51'
b'$GPGSV,2,2,07,14,48,305,35,17,31,249,39,30,59,258,41,6*59'
b'$GPGSV,1,1,02,19,05,242,,27,01,063,,0*6F'
b'$GLGSV,2,1,07,71,03,351,32,78,46,126,42,79,73,348,45,80,20,321,37,1*7B'
b'$GLGSV,2,2,07,81,78,199,47,82,27,210,35,88,42,036,49,1*4F'
b'$GLGSV,2,1,07,71,03,351,19,78,46,126,43,79,73,348,38,80,20,321,30,3*7C'
b'$GLGSV,2,2,07,81,78,199,36,82,27,210,31,88,42,036,37,3*46'
b'$GLGSV,1,1,01,70,00,306,,0*4A'
b'$GAGSV,3,1,09,09,08,317,21,13,54,073,47,15,12,035,29,18,74,056,47,2*7E'
b'$GAGSV,3,2,09,21,64,088,48,26,46,168,42,27,13,109,44,31,07,296,16,2*7C'
b'$GAGSV,3,3,09,33,06,196,31,2*45'
b'$GAGSV,2,1,08,13,54,073,45,15,12,035,26,18,74,056,43,21,64,088,47,7*77'
b'$GAGSV,2,2,08,26,46,168,42,27,13,109,43,31,07,296,17,33,06,196,21,7*79'
b'$GAGSV,1,1,02,04,14,270,,19,02,217,,0*7C'
b'$GBGSV,2,1,06,11,21,221,40,12,76,206,44,24,75,170,46,25,43,308,45,1*79'
b'$GBGSV,2,2,06,26,25,142,35,34,44,223,41,1*73'
b'$GBGSV,1,1,02,11,21,221,36,12,76,206,47,3*74'
b'$GNGLL,4216.42072,N,07148.40572,W,161253.00,A,D*6E'
b'$GNGRS,161253.00,1,0.1,-0.2,-0.3,-0.2,-18.7,0.9,0.0,-1.0,-12.2,0.3,-22.4,,1,1*63'
b'$GNGRS,161253.00,1,0.0,,,,,,0.0,0.0,,,0.0,,1,5*56'
b'$GNGRS,161253.00,1,,2.3,3.2,-0.6,,-0.5,,,,-1.5,,,1,6*51'
b'$GNGRS,161253.00,1,2.6,-10.2,-1.8,0.9,-1.5,-2.7,,,,,,,2,1*67'
b'$GNGRS,161253.00,1,0.7,-12.4,-0.5,1.5,2.2,-4.9,,,,,,,2,3*42'
b'$GNGRS,161253.00,1,-0.6,0.4,1.5,-18.1,0.8,,,,,,,,3,2*4B'
b'$GNGRS,161253.00,1,-0.3,0.7,-0.6,-7.5,1.1,,,,,,,,3,7*55'
b'$GNGRS,161253.00,1,0.4,-0.5,0.1,-2.2,-41.0,2.7,,,,,,,4,1*4A'
b'$GNGRS,161253.00,1,-15.7,1.9,,,,,,,,,,,4,3*43'
b'$GNGST,161253.00,20,0.41,0.31,167,0.17,0.13,0.43*4D'
b'$GNZDA,161253.00,01,04,2024,00,00*7B'
b'$GNGBS,161253.00,0.2,0.1,0.4,11,,40.9,27.8,1,1*5A'
b'$GNVLW,,N,,N,0.000,N,0.000,N*44'
b'\xb5b\x01\x03\x10\x00\xd8U\xa1\x08\x03\xdf\x02\x08O\x02\x00\x00\x07\x86\x05\x00\xb9q\xb5b\x01\x12$\x00\xa0V\xa1\x08\x01\x00\x00\x00\xff\xff\xff\xff\x00\x00\x00\x00\x01\x00\x00\x00\x01\x00\x00\x00\x00\x00\x00\x00\x08\x00\x00\x00\x80\xa8\x12\x01\x18!$GNDTM,W84,,0.0,N,0.0,E,0.0,W84*71'
b'$GNRMC,161253.20,A,4216.42072,N,07148.40573,W,0.015,,010424,,,D,V*09'
b'$GNVTG,,T,,M,0.015,N,0.027,K,D*39'
b'$GNGNS,161253.20,4216.42072,N,07148.40573,W,DDDD,28,0.56,181.0,-33.4,,0000,V*25'
b'$GNGGA,161253.20,4216.42072,N,07148.40573,W,2,12,0.56,181.0,M,-33.4,M,,0000*7F'
b'$GNGSA,A,3,02,07,08,14,46,17,21,22,44,30,13,,0.98,0.56,0.81,1*04'
b'$GNGSA,A,3,78,82,79,88,81,80,,,,,,,0.98,0.56,0.81,2*03'
b'$GNGSA,A,3,21,27,26,15,13,,,,,,,,0.98,0.56,0.81,3*0C'
b'$GNGSA,A,3,11,12,24,25,26,34,,,,,,,0.98,0.56,0.81,4*0E'
b'$GPGSV,3,1,12,01,,,42,02,65,113,49,07,51,197,46,08,35,058,39,1*5A'
b'$GPGSV,3,2,12,13,15,299,29,14,48,305,45,17,31,249,40,21,57,079,48,1*6B'
b'$GPGSV,3,3,12,22,28,298,37,30,59,258,44,44,23,236,35,46,15,247,32,1*6C'
b'$GPGSV,2,1,07,01,,,37,07,51,197,35,08,35,058,18,10,05,036,20,6*51'
b'$GPGSV,2,2,07,14,48,305,35,17,31,249,39,30,59,258,41,6*59'
b'$GPGSV,1,1,02,19,05,242,,27,01,063,,0*6F'
b'$GLGSV,2,1,07,71,03,351,32,78,46,126,42,79,73,348,45,80,20,321,37,1*7B'
b'$GLGSV,2,2,07,81,78,199,47,82,27,210,34,88,42,036,49,1*4E'
b'$GLGSV,2,1,07,71,03,351,19,78,46,126,43,79,73,348,38,80,20,321,30,3*7C'
b'$GLGSV,2,2,07,81,78,199,36,82,27,210,31,88,42,036,37,3*46'
b'$GLGSV,1,1,01,70,00,306,,0*4A'
b'$GAGSV,3,1,09,09,08,317,21,13,54,073,47,15,12,035,29,18,74,056,47,2*7E'
b'$GAGSV,3,2,09,21,64,088,48,26,46,168,42,27,13,109,44,31,07,296,16,2*7C'
b'$GAGSV,3,3,09,33,06,196,31,2*45'
b'$GAGSV,2,1,08,13,54,073,46,15,12,035,26,18,74,056,43,21,64,088,47,7*74'
b'$GAGSV,2,2,08,26,46,168,42,27,13,109,43,31,07,296,17,33,06,196,21,7*79'
b'$GAGSV,1,1,02,04,13,270,,19,02,217,,0*7B'
b'$GBGSV,2,1,06,11,21,221,40,12,76,206,44,24,75,170,46,25,43,308,45,1*79'
b'$GBGSV,2,2,06,26,25,142,35,34,44,223,41,1*73'
b'$GBGSV,1,1,02,11,21,221,37,12,76,206,47,3*75'
b'$GNGLL,4216.42072,N,07148.40573,W,161253.20,A,D*6D'
b'$GNGRS,161253.20,1,0.1,-0.2,-0.3,-0.2,-18.7,0.9,0.0,-1.0,-12.2,0.3,-23.3,,1,1*67'
b'$GNGRS,161253.20,1,0.0,,,,,,0.0,0.0,,,0.0,,1,5*54'
b'$GNGRS,161253.20,1,,2.3,3.1,-0.6,,-0.6,,,,-1.5,,,1,6*53'
b'$GNGRS,161253.20,1,2.5,-10.2,-1.9,0.9,-1.5,-2.7,,,,,,,2,1*67'
b'$GNGRS,161253.20,1,0.6,-12.4,-0.5,1.5,2.2,-5.0,,,,,,,2,3*49'
b'$GNGRS,161253.20,1,-0.6,0.4,1.6,-18.0,0.7,,,,,,,,3,2*44'
b'$GNGRS,161253.20,1,-0.2,0.7,-0.7,-7.5,1.1,,,,,,,,3,7*57'
b'$GNGRS,161253.20,1,0.4,-0.4,0.1,-2.3,-41.0,2.7,,,,,,,4,1*48'
b'$GNGRS,161253.20,1,-15.7,1.9,0.0,0.0,0.0,0.0,,,,,,,4,3*41'
b'$GNGST,161253.20,20,0.41,0.31,167,0.16,0.13,0.43*4E'
b'$GNZDA,161253.20,01,04,2024,00,00*79'
b'$GNGBS,161253.20,0.2,0.1,0.4,11,,41.0,26.4,1,1*5D'
b'$GNVLW,,N,,N,0.000,N,0.000,N*44'
b'\xb5b\x01\x03\x10\x00\xa0V\xa1\x08\x03\xdf\x02\x08O\x02\x00\x00\xcf\x86\x05\x00J \xb5b\x01\x12$\x00hW\xa1\x08\x01\x00\x00\x00\xff\xff\xff\xff\x01\x00\x00\x00\x02\x00\x00\x00\x01\x00\x00\x00\x00\x00\x00\x00\x08\x00\x00\x00\x80\xa8\x12\x01\xe3\x90$GNDTM,W84,,0.0,N,0.0,E,0.0,W84*71'
b'$GNRMC,161253.40,A,4216.42072,N,07148.40573,W,0.025,,010424,,,D,V*0C'
b'$GNVTG,,T,,M,0.025,N,0.047,K,D*3C'
b'$GNGNS,161253.40,4216.42072,N,07148.40573,W,DDDD,28,0.56,181.0,-33.4,,0000,V*23'
b'$GNGGA,161253.40,4216.42072,N,07148.40573,W,2,12,0.56,181.0,M,-33.4,M,,0000*79'
b'$GNGSA,A,3,02,07,08,14,46,17,21,22,44,30,13,,0.98,0.56,0.81,1*04'
b'$GNGSA,A,3,78,82,79,88,81,80,,,,,,,0.98,0.56,0.81,2*03'
b'$GNGSA,A,3,21,27,26,15,13,,,,,,,,0.98,0.56,0.81,3*0C'
b'$GNGSA,A,3,11,12,24,25,26,34,,,,,,,0.98,0.56,0.81,4*0E'
b'$GPGSV,3,1,12,01,,,42,02,65,113,49,07,51,197,46,08,35,058,39,1*5A'
b'$GPGSV,3,2,12,13,15,299,29,14,48,305,45,17,31,249,40,21,57,079,48,1*6B'
b'$GPGSV,3,3,12,22,28,298,37,30,59,258,44,44,23,236,36,46,15,247,32,1*6F'
b'$GPGSV,2,1,07,01,,,37,07,51,197,35,08,35,058,17,10,05,036,20,6*5E'
b'$GPGSV,2,2,07,14,48,305,35,17,31,249,39,30,59,258,41,6*59'
b'$GPGSV,1,1,02,19,05,242,,27,01,063,,0*6F'
b'$GLGSV,2,1,07,71,03,351,32,78,46,126,42,79,73,348,45,80,20,321,37,1*7B'
b'$GLGSV,2,2,07,81,78,199,47,82,27,210,34,88,42,036,49,1*4E'
b'$GLGSV,2,1,07,71,03,351,19,78,46,126,43,79,73,348,38,80,20,321,30,3*7C'
b'$GLGSV,2,2,07,81,78,199,36,82,27,210,31,88,42,036,37,3*46'
b'$GLGSV,1,1,01,70,00,306,,0*4A'
b'$GAGSV,3,1,09,09,08,317,21,13,54,073,47,15,12,035,29,18,74,056,47,2*7E'
b'$GAGSV,3,2,09,21,64,088,48,26,46,168,42,27,13,109,44,31,07,296,16,2*7C'
b'$GAGSV,3,3,09,33,06,196,31,2*45'
b'$GAGSV,2,1,08,13,54,073,45,15,12,035,26,18,74,056,43,21,64,088,47,7*77'
b'$GAGSV,2,2,08,26,46,168,43,27,13,109,43,31,07,296,18,33,06,196,21,7*77'
b'$GAGSV,1,1,02,04,13,270,,19,02,217,,0*7B'
b'$GBGSV,2,1,06,11,21,221,40,12,76,206,44,24,75,170,46,25,43,308,45,1*79'
b'$GBGSV,2,2,06,26,25,142,35,34,44,223,41,1*73'
b'$GBGSV,1,1,02,11,21,221,37,12,76,206,47,3*75'
b'$GNGLL,4216.42072,N,07148.40573,W,161253.40,A,D*6B'
b'$GNGRS,161253.40,1,0.1,-0.2,-0.4,-0.2,-18.7,0.9,0.0,-1.0,-12.3,0.3,-24.0,,1,1*63'
b'$GNGRS,161253.40,1,0.0,,,,,,0.0,0.0,,,0.0,,1,5*52'
b'$GNGRS,161253.40,1,,2.2,4.2,-0.6,,-0.6,,,,-1.5,,,1,6*50'
b'$GNGRS,161253.40,1,2.5,-10.2,-1.9,0.9,-1.5,-2.8,,,,,,,2,1*6E'
b'$GNGRS,161253.40,1,0.6,-12.4,-0.5,1.5,2.2,-4.9,,,,,,,2,3*47'
b'$GNGRS,161253.40,1,-0.7,0.5,1.6,-18.1,0.7,,,,,,,,3,2*43'
b'$GNGRS,161253.40,1,-0.2,0.7,-0.7,-7.4,1.1,,,,,,,,3,7*50'
b'$GNGRS,161253.40,1,0.3,-0.4,0.1,-2.3,-41.0,2.7,,,,,,,4,1*49'
b'$GNGRS,161253.40,1,-15.7,1.9,0.0,0.0,0.0,0.0,,,,,,,4,3*47'
b'$GNGST,161253.40,20,0.41,0.31,167,0.16,0.13,0.43*48'
b'$GNZDA,161253.40,01,04,2024,00,00*7F'
b'$GNGBS,161253.40,0.2,0.1,0.4,11,,41.0,25.2,1,1*5E'
b'$GNVLW,,N,,N,0.000,N,0.000,N*44'
b'\xb5b\x01\x03\x10\x00hW\xa1\x08\x03\xdf\x02\x08O\x02\x00\x00\x97\x87\x05\x00\xdc\xd2\xb5b\x01\x12$\x000X\xa1\x08\x01\x00\x00\x00\x00\x00\x00\x00\x00\x00\x00\x00\x01\x00\x00\x00\x01\x00\x00\x00\x00\x00\x00\x00\x07\x00\x00\x00\x80\xa8\x12\x01\xad\t$GNDTM,W84,,0.0,N,0.0,E,0.0,W84*71'
b'$GNRMC,161253.60,A,4216.42072,N,07148.40574,W,0.021,,010424,,,D,V*0D'
b'$GNVTG,,T,,M,0.021,N,0.039,K,D*31'
b'$GNGNS,161253.60,4216.42072,N,07148.40574,W,DDDD,28,0.56,181.0,-33.4,,0000,V*26'
b'$GNGGA,161253.60,4216.42072,N,07148.40574,W,2,12,0.56,181.0,M,-33.4,M,,0000*7C'
b'$GNGSA,A,3,02,07,08,14,46,17,21,22,44,30,13,,0.98,0.56,0.81,1*04'
b'$GNGSA,A,3,78,82,79,88,81,80,,,,,,,0.98,0.56,0.81,2*03'
b'$GNGSA,A,3,21,27,26,15,13,,,,,,,,0.98,0.56,0.81,3*0C'
b'$GNGSA,A,3,11,12,24,25,26,34,,,,,,,0.98,0.56,0.81,4*0E'
b'$GPGSV,3,1,12,01,,,42,02,65,113,49,07,51,197,46,08,35,058,39,1*5A'
b'$GPGSV,3,2,12,13,15,299,29,14,48,305,45,17,31,249,40,21,57,079,48,1*6B'
b'$GPGSV,3,3,12,22,28,298,37,30,59,258,44,44,23,236,35,46,15,247,32,1*6C'
b'$GPGSV,2,1,07,01,,,37,07,51,197,35,08,35,058,17,10,05,036,20,6*5E'
b'$GPGSV,2,2,07,14,48,305,35,17,31,249,39,30,59,258,41,6*59'
b'$GPGSV,1,1,02,19,05,242,,27,01,063,,0*6F'
b'$GLGSV,2,1,07,71,03,351,32,78,46,126,42,79,73,348,45,80,20,321,37,1*7B'
b'$GLGSV,2,2,07,81,78,199,47,82,27,210,34,88,42,036,49,1*4E'
b'$GLGSV,2,1,07,71,03,351,19,78,46,126,43,79,73,348,38,80,20,321,30,3*7C'
b'$GLGSV,2,2,07,81,78,199,36,82,27,210,31,88,42,036,37,3*46'
b'$GLGSV,1,1,01,70,00,306,,0*4A'
b'$GAGSV,3,1,09,09,08,317,21,13,54,073,47,15,12,035,29,18,74,056,47,2*7E'
b'$GAGSV,3,2,09,21,64,088,48,26,46,168,42,27,13,109,44,31,07,296,16,2*7C'
b'$GAGSV,3,3,09,33,06,196,31,2*45'
b'$GAGSV,2,1,08,13,54,073,46,15,12,035,26,18,74,056,43,21,64,088,47,7*74'
b'$GAGSV,2,2,08,26,46,168,43,27,13,109,43,31,07,296,18,33,06,196,22,7*74'
b'$GAGSV,1,1,02,04,13,270,,19,02,217,,0*7B'
b'$GBGSV,2,1,06,11,21,221,40,12,76,206,44,24,75,170,46,25,43,308,45,1*79'
b'$GBGSV,2,2,06,26,25,142,36,34,44,223,41,1*70'
b'$GBGSV,1,1,02,11,21,221,36,12,76,206,47,3*74'
b'$GNGLL,4216.42072,N,07148.40574,W,161253.60,A,D*6E'
b'$GNGRS,161253.60,1,0.1,-0.2,-0.4,0.0,-18.7,0.6,-0.3,-0.7,-12.3,0.3,-24.1,,1,1*68'
b'$GNGRS,161253.60,1,0.0,,,,,,0.0,0.0,,,0.0,,1,5*50'
b'$GNGRS,161253.60,1,,2.2,5.2,-0.6,,-0.5,,,,-1.5,,,1,6*50'
b'$GNGRS,161253.60,1,2.5,-10.2,-1.9,0.9,-1.5,-2.7,,,,,,,2,1*63'
b'$GNGRS,161253.60,1,0.6,-12.3,-0.5,1.4,2.2,-5.0,,,,,,,2,3*4B'
b'$GNGRS,161253.60,1,-0.6,0.6,1.5,-18.2,0.7,,,,,,,,3,2*43'
b'$GNGRS,161253.60,1,-0.2,0.7,-0.8,-7.4,1.0,,,,,,,,3,7*5C'
b'$GNGRS,161253.60,1,0.3,-0.5,0.0,-2.4,-41.0,2.6,,,,,,,4,1*4D'
b'$GNGRS,161253.60,1,-15.8,1.9,0.0,0.0,0.0,0.0,,,,,,,4,3*4A'
b'$GNGST,161253.60,20,0.41,0.31,167,0.16,0.13,0.42*4B'
b'$GNZDA,161253.60,01,04,2024,00,00*7D'
b'$GNGBS,161253.60,0.2,0.1,0.4,11,,41.0,22.6,1,1*5F'
b'$GNVLW,,N,,N,0.000,N,0.000,N*44'
b'\xb5b\x01\x03\x10\x000X\xa1\x08\x03\xdf\x02\x08O\x02\x00\x00_\x88\x05\x00n\x84\xb5b\x01\x12$\x00\xf8X\xa1\x08\x00\x00\x00\x00\xff\xff\xff\xff\x00\x00\x00\x00\x01\x00\x00\x00\x01\x00\x00\x00\x00\x00\x00\x00\x08\x00\x00\x00\x80\xa8\x12\x01q\xa7$GNDTM,W84,,0.0,N,0.0,E,0.0,W84*71'
b'$GNRMC,161253.80,A,4216.42072,N,07148.40574,W,0.015,,010424,,,D,V*04'
b'$GNVTG,,T,,M,0.015,N,0.028,K,D*36'
b'$GNGNS,161253.80,4216.42072,N,07148.40574,W,DDDD,28,0.56,181.0,-33.4,,0000,V*28'
b'$GNGGA,161253.80,4216.42072,N,07148.40574,W,2,12,0.56,181.0,M,-33.4,M,,0000*72'
b'$GNGSA,A,3,02,07,08,14,46,17,21,22,44,30,13,,0.98,0.56,0.81,1*04'
b'$GNGSA,A,3,78,82,79,88,81,80,,,,,,,0.98,0.56,0.81,2*03'
b'$GNGSA,A,3,21,27,26,15,13,,,,,,,,0.98,0.56,0.81,3*0C'
b'$GNGSA,A,3,11,12,24,25,26,34,,,,,,,0.98,0.56,0.81,4*0E'
b'$GPGSV,3,1,12,01,,,42,02,65,113,49,07,51,197,46,08,35,058,39,1*5A'
b'$GPGSV,3,2,12,13,15,299,29,14,48,305,45,17,31,249,40,21,57,079,48,1*6B'
b'$GPGSV,3,3,12,22,28,298,37,30,59,258,44,44,23,236,36,46,15,247,32,1*6F'
b'$GPGSV,2,1,07,01,,,37,07,51,197,35,08,35,058,17,10,05,036,20,6*5E'
b'$GPGSV,2,2,07,14,48,305,35,17,31,249,39,30,59,258,41,6*59'
b'$GPGSV,1,1,02,19,05,242,,27,01,063,,0*6F'
b'$GLGSV,2,1,07,71,03,351,32,78,46,126,42,79,73,348,45,80,20,321,37,1*7B'
b'$GLGSV,2,2,07,81,78,199,47,82,27,210,34,88,42,036,49,1*4E'
b'$GLGSV,2,1,07,71,03,351,19,78,46,126,43,79,73,348,38,80,20,321,30,3*7C'
b'$GLGSV,2,2,07,81,78,199,35,82,27,210,32,88,42,036,37,3*46'
b'$GLGSV,1,1,01,70,00,306,,0*4A'
b'$GAGSV,3,1,09,09,08,317,21,13,54,073,47,15,12,035,29,18,74,056,47,2*7E'
b'$GAGSV,3,2,09,21,64,088,48,26,46,168,42,27,13,109,44,31,07,296,16,2*7C'
b'$GAGSV,3,3,09,33,06,196,31,2*45'
b'$GAGSV,2,1,08,13,54,073,46,15,12,035,26,18,74,056,43,21,64,088,47,7*74'
b'$GAGSV,2,2,08,26,46,168,43,27,13,109,42,31,07,296,18,33,06,196,22,7*75'
b'$GAGSV,1,1,02,04,13,270,,19,02,217,,0*7B'
b'$GBGSV,2,1,06,11,21,221,40,12,76,206,44,24,75,170,46,25,43,308,45,1*79'
b'$GBGSV,2,2,06,26,25,142,36,34,44,223,41,1*70'
b'$GBGSV,1,1,02,11,21,221,36,12,76,206,47,3*74'
b'$GNGLL,4216.42072,N,07148.40574,W,161253.80,A,D*60'
b'$GNGRS,161253.80,1,0.1,-0.1,-0.4,0.0,-18.7,0.5,-0.2,-0.7,-12.3,0.3,-23.7,,1,1*66'
b'$GNGRS,161253.80,1,,,,,,,,,,,0.0,,1,5*70'
b'$GNGRS,161253.80,1,,2.2,5.0,-0.6,,-0.6,,,,-1.5,,,1,6*5F'
b'$GNGRS,161253.80,1,2.5,-10.1,-1.9,1.0,-1.5,-2.8,,,,,,,2,1*69'
b'$GNGRS,161253.80,1,0.6,-12.2,-0.5,1.4,2.2,-4.9,,,,,,,2,3*4C'
b'$GNGRS,161253.80,1,-0.7,0.5,1.5,-18.2,0.8,,,,,,,,3,2*40'
b'$GNGRS,161253.80,1,-0.3,0.8,-0.8,-7.4,1.0,,,,,,,,3,7*5C'
b'$GNGRS,161253.80,1,0.3,-0.4,0.0,-2.4,-40.9,2.6,,,,,,,4,1*4A'
b'$GNGRS,161253.80,1,-15.9,1.9,0.0,0.0,0.0,0.0,,,,,,,4,3*45'
b'$GNGST,161253.80,19,0.41,0.31,167,0.16,0.13,0.42*4F'
b'$GNZDA,161253.80,01,04,2024,00,00*73'
b'$GNGBS,161253.80,0.2,0.1,0.4,11,,40.9,21.5,1,1*59'
b'$GNVLW,,N,,N,0.000,N,0.000,N*44'
b"\xb5b\x01\x03\x10\x00\xf8X\xa1\x08\x03\xdf\x02\x08O\x02\x00\x00'\x89\x05\x00\xff'\xb5b\x01\x12$\x00\xc0Y\xa1\x08\x00\x00\x00\x00\x00\x00\x00\x00\x00\x00\x00\x00\x01\x00\x00\x00\x00\x00\x00\x00\x00\x00\x00\x00\x07\x00\x00\x00\x80\xa8\x12\x01<<$GNDTM,W84,,0.0,N,0.0,E,0.0,W84*71"
b'$GNRMC,161254.00,A,4216.42072,N,07148.40575,W,0.009,,010424,,,D,V*07'
b'$GNVTG,,T,,M,0.009,N,0.017,K,D*37'
b'$GNGNS,161254.00,4216.42072,N,07148.40575,W,DDDD,28,0.56,181.0,-33.4,,0000,V*26'
b'$GNGGA,161254.00,4216.42072,N,07148.40575,W,2,12,0.56,181.0,M,-33.4,M,,0000*7C'
b'$GNGSA,A,3,02,07,08,14,46,17,21,22,44,30,13,,0.98,0.56,0.81,1*04'
b'$GNGSA,A,3,78,82,79,88,81,80,,,,,,,0.98,0.56,0.81,2*03'
b'$GNGSA,A,3,21,27,26,15,13,,,,,,,,0.98,0.56,0.81,3*0C'
b'$GNGSA,A,3,11,12,24,25,26,34,,,,,,,0.98,0.56,0.81,4*0E'
b'$GPGSV,3,1,12,01,,,42,02,65,113,49,07,51,197,46,08,35,058,39,1*5A'
b'$GPGSV,3,2,12,13,15,299,29,14,48,305,45,17,31,249,40,21,57,079,47,1*64'
b'$GPGSV,3,3,12,22,28,298,37,30,59,258,44,44,23,236,35,46,15,247,32,1*6C'
b'$GPGSV,2,1,07,01,,,37,07,51,197,35,08,35,058,17,10,05,036,20,6*5E'
b'$GPGSV,2,2,07,14,48,305,35,17,31,249,39,30,59,258,41,6*59'
b'$GPGSV,1,1,02,19,05,242,,27,01,063,,0*6F'
b'$GLGSV,2,1,07,71,03,351,32,78,46,126,42,79,73,348,45,80,20,321,37,1*7B'
b'$GLGSV,2,2,07,81,78,199,47,82,27,210,34,88,42,036,49,1*4E'
b'$GLGSV,2,1,07,71,03,351,20,78,46,126,43,79,73,348,38,80,20,321,30,3*76'
b'$GLGSV,2,2,07,81,78,199,35,82,27,210,32,88,42,036,37,3*46'
b'$GLGSV,1,1,01,70,00,306,,0*4A'
b'$GAGSV,3,1,09,09,08,317,21,13,54,073,47,15,12,035,29,18,74,056,47,2*7E'
b'$GAGSV,3,2,09,21,64,088,48,26,46,168,42,27,13,109,43,31,07,296,16,2*7B'
b'$GAGSV,3,3,09,33,06,196,31,2*45'
b'$GAGSV,2,1,08,13,54,073,45,15,12,035,26,18,74,056,43,21,64,088,47,7*77'
b'$GAGSV,2,2,08,26,46,168,43,27,13,109,42,31,07,296,19,33,06,196,22,7*74'
b'$GAGSV,1,1,02,04,13,270,,19,02,217,,0*7B'
b'$GBGSV,2,1,06,11,21,221,40,12,76,206,44,24,75,170,46,25,43,308,45,1*79'
b'$GBGSV,2,2,06,26,25,142,36,34,44,223,41,1*70'
b'$GBGSV,1,1,02,11,21,221,37,12,76,206,47,3*75'
b'$GNGLL,4216.42072,N,07148.40575,W,161254.00,A,D*6E'
b'$GNGRS,161254.00,1,0.2,-0.2,-0.4,0.1,-18.7,0.5,-0.2,-0.7,-12.3,0.3,-23.7,,1,1*68'
b'$GNGRS,161254.00,1,,,,,,,,,,,0.0,,1,5*7F'
b'$GNGRS,161254.00,1,,2.1,4.3,-0.6,,-0.6,,,,-1.6,,,1,6*52'
b'$GNGRS,161254.00,1,2.5,-10.2,-1.9,1.0,-1.5,-2.8,,,,,,,2,1*65'
b'$GNGRS,161254.00,1,0.5,-12.2,-0.5,1.4,2.2,-5.0,,,,,,,2,3*48'
b'$GNGRS,161254.00,1,-0.7,0.4,1.6,-18.1,0.8,,,,,,,,3,2*4E'
b'$GNGRS,161254.00,1,-0.3,0.8,-0.9,-7.2,1.0,,,,,,,,3,7*54'
b'$GNGRS,161254.00,1,0.3,-0.4,0.0,-2.4,-40.9,2.6,,,,,,,4,1*45'
b'$GNGRS,161254.00,1,-15.9,1.9,0.0,0.0,0.0,0.0,,,,,,,4,3*4A'
b'$GNGST,161254.00,20,0.41,0.31,167,0.16,0.13,0.42*4A'
b'$GNZDA,161254.00,01,04,2024,00,00*7C'
b'$GNGBS,161254.00,0.2,0.1,0.4,11,,40.9,20.4,1,1*56'
b'$GNVLW,,N,,N,0.000,N,0.000,N*44'
b'\xb5b\x01\x03\x10\x00\xc0Y\xa1\x08\x03\xdf\x02\x08O\x02\x00\x00\xef\x89\x05\x00\x90\xd6\xb5b\x01\x12$\x00\x88Z\xa1\x08\x01\x00\x00\x00\x00\x00\x00\x00\x00\x00\x00\x00\x01\x00\x00\x00\x01\x00\x00\x00\x00\x00\x00\x00\x08\x00\x00\x00\x80\xa8\x12\x01\x08\xb7$GNDTM,W84,,0.0,N,0.0,E,0.0,W84*71'
b'$GNRMC,161254.20,A,4216.42072,N,07148.40575,W,0.024,,010424,,,D,V*0A'
b'$GNVTG,,T,,M,0.024,N,0.044,K,D*3E'
b'$GNGNS,161254.20,4216.42072,N,07148.40575,W,DDDD,28,0.54,181.0,-33.4,,0000,V*26'
b'$GNGGA,161254.20,4216.42072,N,07148.40575,W,2,12,0.54,181.0,M,-33.4,M,,0000*7C'
b'$GNGSA,A,3,02,07,08,14,46,17,21,22,44,30,13,,0.95,0.54,0.78,1*0D'
b'$GNGSA,A,3,78,82,79,88,81,80,,,,,,,0.95,0.54,0.78,2*0A'
b'$GNGSA,A,3,21,27,26,15,13,,,,,,,,0.95,0.54,0.78,3*05'
b'$GNGSA,A,3,11,12,24,25,26,34,,,,,,,0.95,0.54,0.78,4*07'
b'$GPGSV,3,1,12,01,,,41,02,65,113,49,07,51,197,46,08,35,058,39,1*59'
b'$GPGSV,3,2,12,13,15,299,29,14,48,305,45,17,31,249,40,21,57,079,47,1*64'
b'$GPGSV,3,3,12,22,28,298,37,30,59,258,44,44,23,236,36,46,15,247,32,1*6F'
b'$GPGSV,2,1,07,01,,,37,07,51,197,35,08,35,058,18,10,05,036,20,6*51'
b'$GPGSV,2,2,07,14,48,305,35,17,31,249,39,30,59,258,41,6*59'
b'$GPGSV,1,1,02,19,05,242,,27,01,063,,0*6F'
b'$GLGSV,2,1,07,71,03,351,32,78,46,126,42,79,73,348,45,80,20,321,37,1*7B'
b'$GLGSV,2,2,07,81,78,199,47,82,27,210,35,88,42,036,49,1*4F'
b'$GLGSV,2,1,07,71,03,351,20,78,46,126,43,79,73,348,38,80,20,321,30,3*76'
b'$GLGSV,2,2,07,81,78,199,36,82,27,210,32,88,42,036,37,3*45'
b'$GLGSV,1,1,01,70,00,306,,0*4A'
b'$GAGSV,3,1,09,09,08,317,21,13,54,073,47,15,12,035,29,18,74,056,47,2*7E'
b'$GAGSV,3,2,09,21,64,088,48,26,46,168,42,27,13,109,42,31,07,296,16,2*7A'
b'$GAGSV,3,3,09,33,06,196,31,2*45'
b'$GAGSV,2,1,08,13,54,073,45,15,12,035,26,18,74,056,43,21,64,088,47,7*77'
b'$GAGSV,2,2,08,26,46,168,43,27,13,109,42,31,07,296,18,33,06,196,21,7*76'
b'$GAGSV,1,1,02,04,13,270,,19,02,217,,0*7B'
b'$GBGSV,2,1,06,11,21,221,40,12,76,206,44,24,75,170,46,25,43,308,45,1*79'
b'$GBGSV,2,2,06,26,25,142,36,34,44,223,41,1*70'
b'$GBGSV,1,1,02,11,21,221,37,12,76,206,47,3*75'
b'$GNGLL,4216.42072,N,07148.40575,W,161254.20,A,D*6C'
b'$GNGRS,161254.20,1,0.1,-0.2,-0.4,0.1,-18.7,0.5,-0.2,-0.8,-12.3,0.3,-23.3,,1,1*62'
b'$GNGRS,161254.20,1,0.0,,,,,,0.0,0.0,,,0.0,,1,5*53'
b'$GNGRS,161254.20,1,,2.1,4.2,-0.6,,-0.6,,,,-1.6,,,1,6*51'
b'$GNGRS,161254.20,1,2.5,-10.1,-1.9,1.0,-1.5,-2.9,,,,,,,2,1*65'
b'$GNGRS,161254.20,1,0.5,-12.2,-0.6,1.4,2.2,-4.8,,,,,,,2,3*40'
b'$GNGRS,161254.20,1,-0.8,0.3,1.6,-18.0,0.7,,,,,,,,3,2*4A'
b'$GNGRS,161254.20,1,-0.3,0.8,-0.9,-6.9,0.9,,,,,,,,3,7*54'
b'$GNGRS,161254.20,1,0.2,-0.4,0.0,-2.4,-40.9,2.6,,,,,,,4,1*46'
b'$GNGRS,161254.20,1,-15.9,1.9,0.0,0.0,0.0,0.0,,,,,,,4,3*48'
b'$GNGST,161254.20,21,0.41,0.31,167,0.16,0.13,0.42*49'
b'$GNZDA,161254.20,01,04,2024,00,00*7E'
b'$GNGBS,161254.20,0.2,0.1,0.4,,,,,,*5F'
b'$GNVLW,,N,,N,0.000,N,0.000,N*44'
b'\xb5b\x01\x03\x10\x00\x88Z\xa1\x08\x03\xdf\x02\x08O\x02\x00\x00\xb7\x8a\x05\x00"\x88\xb5b\x01\x12$\x00P[\xa1\x08\xff\xff\xff\xff\x00\x00\x00\x00\xff\xff\xff\xff\x01\x00\x00\x00\x01\x00\x00\x00\x00\x00\x00\x00\x08\x00\x00\x00\x80\xa8\x12\x01\xc8\x06$GNDTM,W84,,0.0,N,0.0,E,0.0,W84*71'
b'$GNRMC,161254.40,A,4216.42072,N,07148.40575,W,0.015,,010424,,,D,V*0E'
b'$GNVTG,,T,,M,0.015,N,0.027,K,D*39'
b'$GNGNS,161254.40,4216.42072,N,07148.40575,W,DDDD,28,0.54,181.0,-33.4,,0000,V*20'
b'$GNGGA,161254.40,4216.42072,N,07148.40575,W,2,12,0.54,181.0,M,-33.4,M,,0000*7A'
b'$GNGSA,A,3,02,07,08,14,46,17,21,22,44,30,13,,0.95,0.54,0.78,1*0D'
b'$GNGSA,A,3,78,82,79,88,81,80,,,,,,,0.95,0.54,0.78,2*0A'
b'$GNGSA,A,3,21,27,26,15,13,,,,,,,,0.95,0.54,0.78,3*05'
b'$GNGSA,A,3,11,12,24,25,26,34,,,,,,,0.95,0.54,0.78,4*07'
b'$GPGSV,3,1,12,01,,,41,02,65,113,49,07,51,197,46,08,35,058,39,1*59'
b'$GPGSV,3,2,12,13,15,299,29,14,48,305,45,17,31,249,40,21,57,079,48,1*6B'
b'$GPGSV,3,3,12,22,28,298,37,30,59,258,44,44,23,236,36,46,15,247,32,1*6F'
b'$GPGSV,2,1,07,01,,,37,07,51,197,35,08,35,058,18,10,05,036,20,6*51'
b'$GPGSV,2,2,07,14,48,305,35,17,31,249,39,30,59,258,41,6*59'
b'$GPGSV,1,1,02,19,05,242,,27,01,063,,0*6F'
b'$GLGSV,2,1,07,71,03,351,32,78,46,126,41,79,73,348,45,80,20,321,37,1*78'
b'$GLGSV,2,2,07,81,78,199,47,82,27,210,35,88,42,036,49,1*4F'
b'$GLGSV,2,1,07,71,03,351,20,78,46,126,43,79,73,348,38,80,20,321,30,3*76'
b'$GLGSV,2,2,07,81,78,199,36,82,27,210,32,88,42,036,37,3*45'
b'$GLGSV,1,1,01,70,00,306,,0*4A'
b'$GAGSV,3,1,09,09,08,317,21,13,54,073,45,15,12,035,28,18,74,056,46,2*7C'
b'$GAGSV,3,2,09,21,64,088,47,26,46,168,41,27,13,109,41,31,07,296,16,2*75'
b'$GAGSV,3,3,09,33,06,196,31,2*45'
b'$GAGSV,3,1,09,04,13,270,22,13,54,073,45,15,12,035,26,18,74,056,43,7*76'
b'$GAGSV,3,2,09,21,64,088,47,26,46,168,42,27,13,109,42,31,07,296,18,7*7E'
b'$GAGSV,3,3,09,33,06,196,21,7*41'
b'$GAGSV,1,1,01,19,02,217,,0*4B'
b'$GBGSV,2,1,06,11,21,221,40,12,76,206,44,24,75,170,46,25,43,308,45,1*79'
b'$GBGSV,2,2,06,26,25,142,35,34,44,223,41,1*73'
b'$GBGSV,1,1,02,11,21,221,36,12,76,206,46,3*75'
b'$GNGLL,4216.42072,N,07148.40575,W,161254.40,A,D*6A'
b'$GNGRS,161254.40,1,0.2,-0.2,-0.4,0.1,-18.6,0.5,-0.2,-0.8,-12.4,0.3,-22.9,,1,1*6A'
b'$GNGRS,161254.40,1,0.0,,,,,,0.0,0.0,,,0.0,,1,5*55'
b'$GNGRS,161254.40,1,,2.1,3.9,-0.6,,-0.6,,,,-1.6,,,1,6*5B'
b'$GNGRS,161254.40,1,2.5,-10.1,-1.9,1.0,-1.6,-2.8,,,,,,,2,1*61'
b'$GNGRS,161254.40,1,0.5,-12.2,-0.6,1.4,2.2,-4.8,,,,,,,2,3*46'
b'$GNGRS,161254.40,1,-0.8,0.2,1.6,-18.1,0.7,,,,,,,,3,2*4C'
b'$GNGRS,161254.40,1,-0.3,0.8,-0.8,-7.2,0.8,,,,,,,,3,7*58'
b'$GNGRS,161254.40,1,0.2,-0.5,0.0,-2.4,-40.9,2.7,,,,,,,4,1*40'
b'$GNGRS,161254.40,1,-15.9,1.9,0.0,0.0,0.0,0.0,,,,,,,4,3*4E'
b'$GNGST,161254.40,21,0.41,0.31,166,0.16,0.13,0.42*4E'
b'$GNZDA,161254.40,01,04,2024,00,00*78'
b'$GNGBS,161254.40,0.2,0.1,0.4,,,,,,*59'
b'$GNVLW,,N,,N,0.000,N,0.000,N*44'
b'\xb5b\x01\x03\x10\x00P[\xa1\x08\x03\xdf\x02\x08O\x02\x00\x00\x7f\x8b\x05\x00\xb4:\xb5b\x01\x12$\x00\x18\\\xa1\x08\xff\xff\xff\xff\x00\x00\x00\x00\x00\x00\x00\x00\x01\x00\x00\x00\x01\x00\x00\x00\x00\x00\x00\x00\x07\x00\x00\x00\x80\xa8\x12\x01\x94\x9b$GNDTM,W84,,0.0,N,0.0,E,0.0,W84*71'
b'$GNRMC,161254.60,A,4216.42072,N,07148.40576,W,0.011,,010424,,,D,V*0B'
b'$GNVTG,,T,,M,0.011,N,0.020,K,D*3A'
b'$GNGNS,161254.60,4216.42072,N,07148.40576,W,DDDD,28,0.54,181.1,-33.4,,0000,V*20'
b'$GNGGA,161254.60,4216.42072,N,07148.40576,W,2,12,0.54,181.1,M,-33.4,M,,0000*7A'
b'$GNGSA,A,3,02,07,08,14,46,17,21,22,44,30,13,,0.95,0.54,0.78,1*0D'
b'$GNGSA,A,3,78,82,79,88,81,80,,,,,,,0.95,0.54,0.78,2*0A'
b'$GNGSA,A,3,21,27,26,15,13,,,,,,,,0.95,0.54,0.78,3*05'
b'$GNGSA,A,3,11,12,24,25,26,34,,,,,,,0.95,0.54,0.78,4*07'
b'$GPGSV,3,1,12,01,,,41,02,65,113,49,07,51,197,46,08,35,058,39,1*59'
b'$GPGSV,3,2,12,13,15,299,29,14,48,305,45,17,31,249,39,21,57,079,48,1*65'
b'$GPGSV,3,3,12,22,28,298,37,30,59,258,44,44,23,236,36,46,15,247,33,1*6E'
b'$GPGSV,2,1,07,01,,,37,07,51,197,35,08,35,058,18,10,05,036,20,6*51'
b'$GPGSV,2,2,07,14,48,305,35,17,31,249,39,30,59,258,41,6*59'
b'$GPGSV,1,1,02,19,05,242,,27,01,063,,0*6F'
b'$GLGSV,2,1,07,71,03,351,33,78,46,126,41,79,73,348,45,80,20,321,36,1*78'
b'$GLGSV,2,2,07,81,78,199,47,82,27,210,35,88,42,036,49,1*4F'
b'$GLGSV,2,1,07,71,03,351,20,78,46,126,43,79,73,348,38,80,20,321,30,3*76'
b'$GLGSV,2,2,07,81,78,199,36,82,27,210,32,88,42,036,37,3*45'
b'$GLGSV,1,1,01,70,00,306,,0*4A'
b'$GAGSV,3,1,09,09,08,317,22,13,54,073,46,15,12,035,29,18,74,056,47,2*7C'
b'$GAGSV,3,2,09,21,64,088,48,26,46,168,41,27,13,109,42,31,07,296,17,2*78'
b'$GAGSV,3,3,09,33,06,196,31,2*45'
b'$GAGSV,3,1,09,04,13,270,22,13,54,073,45,15,12,035,26,18,74,056,43,7*76'
b'$GAGSV,3,2,09,21,64,088,47,26,46,168,43,27,13,109,42,31,07,296,19,7*7E'
b'$GAGSV,3,3,09,33,06,196,21,7*41'
b'$GAGSV,1,1,01,19,02,217,,0*4B'
b'$GBGSV,2,1,06,11,21,221,40,12,76,206,44,24,75,170,46,25,43,308,45,1*79'
b'$GBGSV,2,2,06,26,25,142,35,34,44,223,41,1*73'
b'$GBGSV,1,1,02,11,21,221,33,12,76,206,46,3*70'
b'$GNGLL,4216.42072,N,07148.40576,W,161254.60,A,D*6B'
b'$GNGRS,161254.60,1,-0.1,-0.4,-0.5,0.1,-18.7,0.5,-0.3,-0.7,-12.3,0.3,-22.8,,1,1*48'
b'$GNGRS,161254.60,1,0.0,,,,,,0.0,0.0,,,0.0,,1,5*57'
b'$GNGRS,161254.60,1,,2.1,3.7,-0.6,,-0.6,,,,-1.5,,,1,6*54'
b'$GNGRS,161254.60,1,2.5,-10.0,-1.9,1.0,-1.5,-2.8,,,,,,,2,1*61'
b'$GNGRS,161254.60,1,0.5,-12.2,-0.6,1.5,2.2,-4.7,,,,,,,2,3*4A'
b'$GNGRS,161254.60,1,-0.7,0.2,1.6,-18.1,0.8,,,,,,,,3,2*4E'
b'$GNGRS,161254.60,1,-0.3,1.0,-0.7,-7.4,0.9,,,,,,,,3,7*5B'
b'$GNGRS,161254.60,1,0.3,-0.5,0.0,-2.4,-40.9,2.6,,,,,,,4,1*42'
b'$GNGRS,161254.60,1,-15.9,1.9,0.0,0.0,0.0,0.0,,,,,,,4,3*4C'
b'$GNGST,161254.60,21,0.41,0.31,166,0.16,0.13,0.42*4C'
b'$GNZDA,161254.60,01,04,2024,00,00*7A'
b'$GNGBS,161254.60,0.2,0.1,0.4,,,,,,*5B'
b'$GNVLW,,N,,N,0.000,N,0.000,N*44'
b'\xb5b\x01\x03\x10\x00\x18\\\xa1\x08\x03\xdf\x02\x08O\x02\x00\x00G\x8c\x05\x00F\xec\xb5b\x01\x12$\x00\xe0\\\xa1\x08\x00\x00\x00\x00\x01\x00\x00\x00\xff\xff\xff\xff\x02\x00\x00\x00\x01\x00\x00\x00\x00\x00\x00\x00\x08\x00\x00\x00\x80\xa8\x12\x01_\x13$GNDTM,W84,,0.0,N,0.0,E,0.0,W84*71'
b'$GNRMC,161254.80,A,4216.42072,N,07148.40576,W,0.018,,010424,,,D,V*0C'
b'$GNVTG,,T,,M,0.018,N,0.034,K,D*36'
b'$GNGNS,161254.80,4216.42072,N,07148.40576,W,DDDD,28,0.54,181.1,-33.4,,0000,V*2E'
b'$GNGGA,161254.80,4216.42072,N,07148.40576,W,2,12,0.54,181.1,M,-33.4,M,,0000*74'
b'$GNGSA,A,3,02,07,08,14,46,17,21,22,44,30,13,,0.95,0.54,0.78,1*0D'
b'$GNGSA,A,3,78,82,79,88,81,80,,,,,,,0.95,0.54,0.78,2*0A'
b'$GNGSA,A,3,21,27,26,15,13,,,,,,,,0.95,0.54,0.78,3*05'
b'$GNGSA,A,3,11,12,24,25,26,34,,,,,,,0.95,0.54,0.78,4*07'
b'$GPGSV,3,1,12,01,,,41,02,65,113,49,07,51,197,46,08,35,058,39,1*59'
b'$GPGSV,3,2,12,13,15,299,29,14,48,305,45,17,31,249,39,21,57,079,48,1*65'
b'$GPGSV,3,3,12,22,28,298,37,30,59,258,44,44,23,236,35,46,15,247,33,1*6D'
b'$GPGSV,2,1,07,01,,,38,07,51,197,35,08,35,058,19,10,05,036,20,6*5F'
b'$GPGSV,2,2,07,14,48,305,35,17,31,249,39,30,59,258,41,6*59'
b'$GPGSV,1,1,02,19,05,242,,27,01,063,,0*6F'
b'$GLGSV,2,1,07,71,03,351,33,78,46,126,41,79,73,348,45,80,20,321,36,1*78'
b'$GLGSV,2,2,07,81,78,199,47,82,27,210,35,88,42,036,49,1*4F'
b'$GLGSV,2,1,07,71,03,351,20,78,46,126,43,79,73,348,38,80,20,321,30,3*76'
b'$GLGSV,2,2,07,81,78,199,36,82,27,210,32,88,42,036,37,3*45'
b'$GLGSV,1,1,01,70,00,306,,0*4A'
b'$GAGSV,3,1,09,09,08,317,22,13,54,073,46,15,12,035,28,18,74,056,47,2*7D'
b'$GAGSV,3,2,09,21,64,088,47,26,46,168,41,27,13,109,41,31,07,296,17,2*74'
b'$GAGSV,3,3,09,33,06,196,31,2*45'
b'$GAGSV,3,1,09,04,13,270,22,13,54,073,45,15,12,035,26,18,74,056,43,7*76'
b'$GAGSV,3,2,09,21,64,088,47,26,46,168,43,27,13,109,41,31,07,296,18,7*7C'
b'$GAGSV,3,3,09,33,06,196,21,7*41'
b'$GAGSV,1,1,01,19,02,217,,0*4B'
b'$GBGSV,2,1,06,11,21,221,40,12,76,206,44,24,75,170,46,25,43,308,45,1*79'
b'$GBGSV,2,2,06,26,25,142,35,34,44,223,41,1*73'
b'$GBGSV,1,1,02,11,21,221,34,12,76,206,46,3*77'
b'$GNGLL,4216.42072,N,07148.40576,W,161254.80,A,D*65'
b'$GNGRS,161254.80,1,0.0,-0.4,-0.5,0.1,-18.7,0.5,-0.3,-0.7,-12.2,0.4,-22.8,,1,1*6C'
b'$GNGRS,161254.80,1,0.0,,,,,,0.0,0.0,,,,,1,5*77'
b'$GNGRS,161254.80,1,,2.1,3.9,-0.6,,-0.7,,,,-1.5,,,1,6*55'
b'$GNGRS,161254.80,1,2.5,-10.0,-1.9,1.1,-1.5,-2.8,,,,,,,2,1*6E'
b'$GNGRS,161254.80,1,0.5,-12.3,-0.6,1.5,2.3,-4.7,,,,,,,2,3*44'
b'$GNGRS,161254.80,1,-0.7,0.4,1.6,-18.1,0.8,,,,,,,,3,2*46'
b'$GNGRS,161254.80,1,-0.2,0.9,-0.7,-7.4,0.9,,,,,,,,3,7*5C'
b'$GNGRS,161254.80,1,0.3,-0.5,0.0,-2.4,-40.8,2.7,,,,,,,4,1*4C'
b'$GNGRS,161254.80,1,-15.9,1.9,0.0,0.0,0.0,0.0,,,,,,,4,3*42'
b'$GNGST,161254.80,21,0.41,0.31,166,0.16,0.13,0.42*42'
b'$GNZDA,161254.80,01,04,2024,00,00*74'
b'$GNGBS,161254.80,0.2,0.1,0.4,,,,,,*55'
b'$GNVLW,,N,,N,0.000,N,0.000,N*44'
b'\xb5b\x01\x03\x10\x00\xe0\\\xa1\x08\x03\xdf\x02\x08O\x02\x00\x00\x0f\x8d\x05\x00\xd7\x8f\xb5b\x01\x12$\x00\xa8]\xa1\x08\xff\xff\xff\xff\x01\x00\x00\x00\xff\xff\xff\xff\x01\x00\x00\x00\x01\x00\x00\x00\x00\x00\x00\x00\x07\x00\x00\x00\x80\xa8\x12\x01"\xc0$GNDTM,W84,,0.0,N,0.0,E,0.0,W84*71'
b'$GNRMC,161255.00,A,4216.42073,N,07148.40576,W,0.025,,010424,,,D,V*0A'
b'$GNVTG,,T,,M,0.025,N,0.047,K,D*3C'
b'$GNGNS,161255.00,4216.42073,N,07148.40576,W,DDDD,28,0.54,181.1,-33.4,,0000,V*26'
b'$GNGGA,161255.00,4216.42073,N,07148.40576,W,2,12,0.54,181.1,M,-33.4,M,,0000*7C'
b'$GNGSA,A,3,02,07,08,14,46,17,21,22,44,30,13,,0.95,0.54,0.78,1*0D'
b'$GNGSA,A,3,78,82,79,88,81,80,,,,,,,0.95,0.54,0.78,2*0A'
b'$GNGSA,A,3,21,27,26,15,13,,,,,,,,0.95,0.54,0.78,3*05'
b'$GNGSA,A,3,11,12,24,25,26,34,,,,,,,0.95,0.54,0.78,4*07'
b'$GPGSV,3,1,12,01,,,41,02,65,113,49,07,51,197,46,08,35,058,39,1*59'
b'$GPGSV,3,2,12,13,15,299,29,14,48,305,45,17,31,249,39,21,57,079,48,1*65'
b'$GPGSV,3,3,12,22,28,298,37,30,59,258,44,44,23,236,36,46,15,247,33,1*6E'
b'$GPGSV,2,1,07,01,,,38,07,51,197,35,08,35,058,19,10,05,036,20,6*5F'
b'$GPGSV,2,2,07,14,48,305,35,17,31,249,40,30,59,258,41,6*57'
b'$GPGSV,1,1,02,19,05,242,,27,01,063,,0*6F'
b'$GLGSV,2,1,07,71,03,351,33,78,46,126,41,79,73,348,45,80,20,321,36,1*78'
b'$GLGSV,2,2,07,81,78,199,47,82,27,210,34,88,42,036,49,1*4E'
b'$GLGSV,2,1,07,71,03,351,20,78,46,126,43,79,73,348,38,80,20,321,30,3*76'
b'$GLGSV,2,2,07,81,78,199,36,82,27,210,32,88,42,036,37,3*45'
b'$GLGSV,1,1,01,70,00,306,,0*4A'
b'$GAGSV,3,1,09,09,08,317,22,13,54,073,46,15,12,035,28,18,74,056,46,2*7C'
b'$GAGSV,3,2,09,21,64,088,47,26,46,168,42,27,13,109,41,31,07,296,17,2*77'
b'$GAGSV,3,3,09,33,06,196,31,2*45'
b'$GAGSV,3,1,09,04,13,270,22,13,54,073,45,15,12,035,25,18,74,056,43,7*75'
b'$GAGSV,3,2,09,21,64,088,47,26,46,168,43,27,13,109,40,31,07,296,19,7*7C'
b'$GAGSV,3,3,09,33,06,196,21,7*41'
b'$GAGSV,1,1,01,19,02,217,,0*4B'
b'$GBGSV,2,1,06,11,21,221,40,12,76,206,44,24,75,170,46,25,43,308,45,1*79'
b'$GBGSV,2,2,06,26,25,142,35,34,44,223,41,1*73'
b'$GBGSV,1,1,02,11,21,221,34,12,76,206,46,3*77'
b'$GNGLL,4216.42073,N,07148.40576,W,161255.00,A,D*6D'
b'$GNGRS,161255.00,1,0.0,-0.4,-0.5,0.2,-18.6,0.5,-0.2,-0.7,-12.2,0.4,-22.9,,1,1*67'
b'$GNGRS,161255.00,1,0.0,,,,,,0.0,0.0,,,,,1,5*7E'
b'$GNGRS,161255.00,1,,2.0,4.3,-0.6,,-0.6,,,,-1.5,,,1,6*51'
b'$GNGRS,161255.00,1,2.5,-10.0,-1.9,1.1,-1.5,-2.8,,,,,,,2,1*67'
b'$GNGRS,161255.00,1,0.5,-12.2,-0.5,1.6,2.3,-4.6,,,,,,,2,3*4D'
b'$GNGRS,161255.00,1,-0.6,0.3,1.5,-18.1,0.8,,,,,,,,3,2*4A'
b'$GNGRS,161255.00,1,-0.3,0.9,-0.7,-7.2,1.0,,,,,,,,3,7*5A'
b'$GNGRS,161255.00,1,0.2,-0.5,0.1,-2.3,-40.8,2.7,,,,,,,4,1*42'
b'$GNGRS,161255.00,1,-16.0,1.9,0.0,0.0,0.0,0.0,,,,,,,4,3*41'
b'$GNGST,161255.00,21,0.41,0.31,166,0.16,0.13,0.42*4B'
b'$GNZDA,161255.00,01,04,2024,00,00*7D'
b'$GNGBS,161255.00,0.2,0.1,0.4,,,,,,*5C'
b'$GNVLW,,N,,N,0.000,N,0.000,N*44'
b'\xb5b\x01\x03\x10\x00\xa8]\xa1\x08\x03\xdf\x02\x08O\x02\x00\x00\xd7\x8d\x05\x00h>\xb5b\x01\x12$\x00p^\xa1\x08\x00\x00\x00\x00\x01\x00\x00\x00\xff\xff\xff\xff\x01\x00\x00\x00\x01\x00\x00\x00\x00\x00\x00\x00\x08\x00\x00\x00\x80\xa8\x12\x01\xf0\x85$GNDTM,W84,,0.0,N,0.0,E,0.0,W84*71'
b'$GNRMC,161255.20,A,4216.42073,N,07148.40576,W,0.016,,010424,,,D,V*08'
b'$GNVTG,,T,,M,0.016,N,0.029,K,D*34'
b'$GNGNS,161255.20,4216.42073,N,07148.40576,W,DDDD,28,0.54,181.1,-33.4,,0000,V*24'
b'$GNGGA,161255.20,4216.42073,N,07148.40576,W,2,12,0.54,181.1,M,-33.4,M,,0000*7E'
b'$GNGSA,A,3,02,07,08,14,46,17,21,22,44,30,13,,0.95,0.54,0.78,1*0D'
b'$GNGSA,A,3,78,82,79,88,81,80,,,,,,,0.95,0.54,0.78,2*0A'
b'$GNGSA,A,3,21,27,26,15,13,,,,,,,,0.95,0.54,0.78,3*05'
b'$GNGSA,A,3,11,12,24,25,26,34,,,,,,,0.95,0.54,0.78,4*07'
b'$GPGSV,3,1,12,01,,,41,02,65,113,49,07,51,197,46,08,35,058,39,1*59'
b'$GPGSV,3,2,12,13,15,299,29,14,48,305,45,17,31,249,39,21,57,079,48,1*65'
b'$GPGSV,3,3,12,22,28,298,37,30,59,258,44,44,23,236,36,46,15,247,33,1*6E'
b'$GPGSV,2,1,07,01,,,38,07,51,197,35,08,35,058,19,10,05,036,20,6*5F'
b'$GPGSV,2,2,07,14,48,305,35,17,31,249,40,30,59,258,41,6*57'
b'$GPGSV,1,1,02,19,05,242,,27,01,063,,0*6F'
b'$GLGSV,2,1,07,71,03,351,33,78,46,126,41,79,73,348,45,80,20,321,36,1*78'
b'$GLGSV,2,2,07,81,78,199,47,82,27,210,34,88,42,036,49,1*4E'
b'$GLGSV,2,1,07,71,03,351,20,78,46,126,43,79,73,348,38,80,20,321,30,3*76'
b'$GLGSV,2,2,07,81,78,199,36,82,27,210,32,88,42,036,37,3*45'
b'$GLGSV,1,1,01,70,00,306,,0*4A'
b'$GAGSV,3,1,09,09,08,317,21,13,54,073,45,15,12,035,28,18,74,056,46,2*7C'
b'$GAGSV,3,2,09,21,64,088,47,26,46,168,42,27,13,109,40,31,07,296,17,2*76'
b'$GAGSV,3,3,09,33,06,196,31,2*45'
b'$GAGSV,3,1,09,04,13,270,22,13,54,073,45,15,12,035,25,18,74,056,43,7*75'
b'$GAGSV,3,2,09,21,64,088,47,26,46,168,43,27,13,109,40,31,07,296,19,7*7C'
b'$GAGSV,3,3,09,33,06,196,21,7*41'
b'$GAGSV,1,1,01,19,02,217,,0*4B'
b'$GBGSV,2,1,06,11,21,221,40,12,76,206,44,24,75,170,46,25,43,308,45,1*79'
b'$GBGSV,2,2,06,26,25,142,36,34,44,223,41,1*70'
b'$GBGSV,1,1,02,11,21,221,34,12,76,206,46,3*77'
b'$GNGLL,4216.42073,N,07148.40576,W,161255.20,A,D*6F'
b'$GNGRS,161255.20,1,0.0,-0.4,-0.5,0.2,-18.7,0.5,-0.2,-0.6,-12.2,0.4,-22.4,,1,1*68'
b'$GNGRS,161255.20,1,0.0,,,,,,0.0,0.0,,,0.0,,1,5*52'
b'$GNGRS,161255.20,1,,2.1,4.4,-0.6,,-0.6,,,,-1.5,,,1,6*55'
b'$GNGRS,161255.20,1,2.5,-9.9,-1.9,1.1,-1.5,-2.8,,,,,,,2,1*54'
b'$GNGRS,161255.20,1,0.5,-12.1,-0.6,1.6,2.3,-4.5,,,,,,,2,3*4C'
b'$GNGRS,161255.20,1,-0.6,0.3,1.5,-18.2,0.8,,,,,,,,3,2*4B'
b'$GNGRS,161255.20,1,-0.3,1.0,-0.7,-7.3,0.9,,,,,,,,3,7*59'
b'$GNGRS,161255.20,1,0.3,-0.5,0.1,-2.4,-40.7,2.7,,,,,,,4,1*49'
b'$GNGRS,161255.20,1,-16.0,2.0,0.0,0.0,0.0,0.0,,,,,,,4,3*49'
b'$GNGST,161255.20,21,0.41,0.31,166,0.16,0.13,0.42*49'
b'$GNZDA,161255.20,01,04,2024,00,00*7F'
b'$GNGBS,161255.20,0.2,0.1,0.4,,,,,,*5E'
b'$GNVLW,,N,,N,0.000,N,0.000,N*44'
b'\xb5b\x01\x03\x10\x00p^\xa1\x08\x03\xdf\x02\x08O\x02\x00\x00\x9f\x8e\x05\x00\xfa\xf0\xb5b\x01\x12$\x008_\xa1\x08\xff\xff\xff\xff\x02\x00\x00\x00\xff\xff\xff\xff\x02\x00\x00\x00\x02\x00\x00\x00\x00\x00\x00\x00\x08\x00\x00\x00\x80\xa8\x12\x01\xb8\x8e$GNDTM,W84,,0.0,N,0.0,E,0.0,W84*71'
b'$GNRMC,161255.40,A,4216.42073,N,07148.40577,W,0.040,,010424,,,D,V*0C'
b'$GNVTG,,T,,M,0.040,N,0.074,K,D*3F'
b'$GNGNS,161255.40,4216.42073,N,07148.40577,W,DDDD,28,0.54,181.1,-33.4,,0000,V*23'
b'$GNGGA,161255.40,4216.42073,N,07148.40577,W,2,12,0.54,181.1,M,-33.4,M,,0000*79'
b'$GNGSA,A,3,02,07,08,14,46,17,21,22,44,30,13,,0.95,0.54,0.78,1*0D'
b'$GNGSA,A,3,78,82,79,88,81,80,,,,,,,0.95,0.54,0.78,2*0A'
b'$GNGSA,A,3,21,27,26,15,13,,,,,,,,0.95,0.54,0.78,3*05'
b'$GNGSA,A,3,11,12,24,25,26,34,,,,,,,0.95,0.54,0.78,4*07'
b'$GPGSV,3,1,12,01,,,41,02,65,113,49,07,51,197,46,08,35,058,39,1*59'
b'$GPGSV,3,2,12,13,15,299,29,14,48,305,45,17,31,249,40,21,57,079,48,1*6B'
b'$GPGSV,3,3,12,22,28,298,37,30,59,258,44,44,23,236,36,46,15,247,33,1*6E'
b'$GPGSV,2,1,07,01,,,38,07,51,197,35,08,35,058,20,10,05,036,20,6*55'
b'$GPGSV,2,2,07,14,48,305,35,17,31,249,40,30,59,258,41,6*57'
b'$GPGSV,1,1,02,19,05,242,,27,01,063,,0*6F'
b'$GLGSV,2,1,07,71,03,351,33,78,46,126,42,79,73,348,45,80,20,321,36,1*7B'
b'$GLGSV,2,2,07,81,78,199,47,82,27,210,34,88,42,036,49,1*4E'
b'$GLGSV,2,1,07,71,03,351,20,78,46,126,43,79,73,348,38,80,20,321,30,3*76'
b'$GLGSV,2,2,07,81,78,199,36,82,27,210,32,88,42,036,37,3*45'
b'$GLGSV,1,1,01,70,00,306,,0*4A'
b'$GAGSV,3,1,09,09,08,317,21,13,54,073,45,15,12,035,28,18,74,056,46,2*7C'
b'$GAGSV,3,2,09,21,64,088,47,26,46,168,42,27,13,109,40,31,07,296,16,2*77'
b'$GAGSV,3,3,09,33,06,196,31,2*45'
b'$GAGSV,3,1,09,04,13,270,21,13,54,073,45,15,12,035,25,18,74,056,43,7*76'
b'$GAGSV,3,2,09,21,64,088,47,26,46,168,43,27,13,109,40,31,07,296,19,7*7C'
b'$GAGSV,3,3,09,33,06,196,21,7*41'
b'$GAGSV,1,1,01,19,02,217,,0*4B'
b'$GBGSV,2,1,06,11,21,221,40,12,76,206,44,24,75,170,46,25,43,308,45,1*79'
b'$GBGSV,2,2,06,26,25,142,36,34,44,223,41,1*70'
b'$GBGSV,1,1,02,11,21,221,35,12,76,206,46,3*76'
b'$GNGLL,4216.42073,N,07148.40577,W,161255.40,A,D*68'
b'$GNGRS,161255.40,1,0.1,-0.4,-0.5,0.1,-18.7,0.5,-0.2,-0.6,-12.2,0.4,-23.2,,1,1*6B'
b'$GNGRS,161255.40,1,0.0,,,,,,0.0,0.0,,,0.0,,1,5*54'
b'$GNGRS,161255.40,1,,2.0,5.0,-0.6,,-0.6,,,,-1.6,,,1,6*54'
b'$GNGRS,161255.40,1,2.5,-9.9,-1.9,1.1,-1.5,-2.8,,,,,,,2,1*52'
b'$GNGRS,161255.40,1,0.6,-12.2,-0.6,1.6,2.3,-4.5,,,,,,,2,3*4A'
b'$GNGRS,161255.40,1,-0.6,0.4,1.5,-18.2,0.8,,,,,,,,3,2*4A'
b'$GNGRS,161255.40,1,-0.4,0.9,-0.6,-8.6,0.9,,,,,,,,3,7*5B'
b'$GNGRS,161255.40,1,0.3,-0.5,0.1,-2.4,-40.7,2.7,,,,,,,4,1*4F'
b'$GNGRS,161255.40,1,-16.0,2.0,0.0,0.0,0.0,0.0,,,,,,,4,3*4F'
b'$GNGST,161255.40,21,0.41,0.31,166,0.16,0.13,0.42*4F'
b'$GNZDA,161255.40,01,04,2024,00,00*79'
b'$GNGBS,161255.40,0.2,0.1,0.4,,,,,,*58'
b'$GNVLW,,N,,N,0.000,N,0.000,N*44'
b'\xb5b\x01\x03\x10\x008_\xa1\x08\x03\xdf\x02\x08O\x02\x00\x00g\x8f\x05\x00\x8c\xa2\xb5b\x01\x12$\x00\x00`\xa1\x08\x00\x00\x00\x00\x01\x00\x00\x00\xfe\xff\xff\xff\x02\x00\x00\x00\x01\x00\x00\x00\x00\x00\x00\x00\t\x00\x00\x00\x80\xa8\x12\x01\x83\x0f$GNDTM,W84,,0.0,N,0.0,E,0.0,W84*71'
b'$GNRMC,161255.60,A,4216.42073,N,07148.40577,W,0.012,,010424,,,D,V*09'
b'$GNVTG,,T,,M,0.012,N,0.022,K,D*3B'
b'$GNGNS,161255.60,4216.42073,N,07148.40577,W,DDDD,28,0.54,181.1,-33.4,,0000,V*21'
